[{"cidade":"Arapiraca","name":"Arapiraca, AL <br> GPON","tecnologia":"GPON","color":"green","latitude":"-9.754866","uf":"AL","longitude":"-36.661471"},{"cidade":"Trindade","name":"Trindade, GO <br> GPON","tecnologia":"GPON","color":"green","latitude":"-16.651708","uf":"GO","longitude":"-49.492667"},{"cidade":"Araxá","name":"Araxá, MG <br> GPON","tecnologia":"GPON","color":"green","latitude":"-19.590176","uf":"MG","longitude":"-46.943804"},{"cidade":"Itajubá","name":"Itajubá, MG <br> GPON","tecnologia":"GPON","color":"green","latitude":"-22.422481","uf":"MG","longitude":"-45.459818"},{"cidade":"Paraíba Do Sul","name":"Paraíba Do Sul, RJ <br> GPON","tecnologia":"GPON","color":"green","latitude":"-22.158462","uf":"RJ","longitude":"-43.304004"},{"cidade":"Ji-Paraná","name":"Ji-Paraná, RO <br> GPON","tecnologia":"GPON","color":"green","latitude":"-10.877741","uf":"RO","longitude":"-61.932152"},{"cidade":"Camaquã","name":"Camaquã, RS <br> GPON","tecnologia":"GPON","color":"green","latitude":"-30.848897","uf":"RS","longitude":"-51.80431"},{"cidade":"Dois Irmãos","name":"Dois Irmãos, RS <br> GPON","tecnologia":"GPON","color":"green","latitude":"-29.58356","uf":"RS","longitude":"-51.089776"},{"cidade":"Marau","name":"Marau, RS <br> GPON","tecnologia":"GPON","color":"green","latitude":"-28.449754","uf":"RS","longitude":"-52.198625"},{"cidade":"Vacaria","name":"Vacaria, RS <br> GPON","tecnologia":"GPON","color":"green","latitude":"-28.507868","uf":"RS","longitude":"-50.941791"},{"cidade":"Içara","name":"Içara, SC <br> GPON","tecnologia":"GPON","color":"green","latitude":"-28.713206","uf":"SC","longitude":"-49.308654"},{"cidade":"Agudos","name":"Agudos, SP <br> GPON","tecnologia":"GPON","color":"green","latitude":"-22.469433","uf":"SP","longitude":"-48.98632"},{"cidade":"Casa Branca","name":"Casa Branca, SP <br> GPON","tecnologia":"GPON","color":"green","latitude":"-21.77081","uf":"SP","longitude":"-47.085245"},{"cidade":"Ibaté","name":"Ibaté, SP <br> GPON","tecnologia":"GPON","color":"green","latitude":"-21.958358","uf":"SP","longitude":"-47.988211"},{"cidade":"Jaguariúna","name":"Jaguariúna, SP <br> GPON","tecnologia":"GPON","color":"green","latitude":"-22.70374","uf":"SP","longitude":"-46.985062"},{"cidade":"Piedade","name":"Piedade, SP <br> GPON","tecnologia":"GPON","color":"green","latitude":"-23.713941","uf":"SP","longitude":"-47.425572"},{"cidade":"Santa Cruz das Palmeiras","name":"Santa Cruz das Palmeiras, SP <br> GPON","tecnologia":"GPON","color":"green","latitude":"-21.823475","uf":"SP","longitude":"-47.248023"},{"cidade":"Tambaú","name":"Tambaú, SP <br> GPON","tecnologia":"GPON","color":"green","latitude":"-21.70292","uf":"SP","longitude":"-47.270344"},{"cidade":"Araguaína","name":"Araguaína, TO <br> GPON","tecnologia":"GPON","color":"green","latitude":"-7.192375","uf":"TO","longitude":"-48.204402"},{"cidade":"Gurupi","name":"Gurupi, TO <br> GPON","tecnologia":"GPON","color":"green","latitude":"-11.72794","uf":"TO","longitude":"-49.068046"}]
