[{"tecnologia":"GPON","cidade":"Arapiraca","longitude":"-36.661471","latitude":"-9.754866","name":"Arapiraca, AL <br> GPON","uf":"AL","color":"green"},{"tecnologia":"GPON","cidade":"Trindade","longitude":"-49.492667","latitude":"-16.651708","name":"Trindade, GO <br> GPON","uf":"GO","color":"green"},{"tecnologia":"GPON","cidade":"Araxá","longitude":"-46.943804","latitude":"-19.590176","name":"Araxá, MG <br> GPON","uf":"MG","color":"green"},{"tecnologia":"GPON","cidade":"Itajubá","longitude":"-45.459818","latitude":"-22.422481","name":"Itajubá, MG <br> GPON","uf":"MG","color":"green"},{"tecnologia":"GPON","cidade":"Paraíba Do Sul","longitude":"-43.304004","latitude":"-22.158462","name":"Paraíba Do Sul, RJ <br> GPON","uf":"RJ","color":"green"},{"tecnologia":"GPON","cidade":"Ji-Paraná","longitude":"-61.932152","latitude":"-10.877741","name":"Ji-Paraná, RO <br> GPON","uf":"RO","color":"green"},{"tecnologia":"GPON","cidade":"Camaquã","longitude":"-51.80431","latitude":"-30.848897","name":"Camaquã, RS <br> GPON","uf":"RS","color":"green"},{"tecnologia":"GPON","cidade":"Dois Irmãos","longitude":"-51.089776","latitude":"-29.58356","name":"Dois Irmãos, RS <br> GPON","uf":"RS","color":"green"},{"tecnologia":"GPON","cidade":"Marau","longitude":"-52.198625","latitude":"-28.449754","name":"Marau, RS <br> GPON","uf":"RS","color":"green"},{"tecnologia":"GPON","cidade":"Vacaria","longitude":"-50.941791","latitude":"-28.507868","name":"Vacaria, RS <br> GPON","uf":"RS","color":"green"},{"tecnologia":"GPON","cidade":"Içara","longitude":"-49.308654","latitude":"-28.713206","name":"Içara, SC <br> GPON","uf":"SC","color":"green"},{"tecnologia":"GPON","cidade":"Agudos","longitude":"-48.98632","latitude":"-22.469433","name":"Agudos, SP <br> GPON","uf":"SP","color":"green"},{"tecnologia":"GPON","cidade":"Casa Branca","longitude":"-47.085245","latitude":"-21.77081","name":"Casa Branca, SP <br> GPON","uf":"SP","color":"green"},{"tecnologia":"GPON","cidade":"Ibaté","longitude":"-47.988211","latitude":"-21.958358","name":"Ibaté, SP <br> GPON","uf":"SP","color":"green"},{"tecnologia":"GPON","cidade":"Jaguariúna","longitude":"-46.985062","latitude":"-22.70374","name":"Jaguariúna, SP <br> GPON","uf":"SP","color":"green"},{"tecnologia":"GPON","cidade":"Piedade","longitude":"-47.425572","latitude":"-23.713941","name":"Piedade, SP <br> GPON","uf":"SP","color":"green"},{"tecnologia":"GPON","cidade":"Santa Cruz das Palmeiras","longitude":"-47.248023","latitude":"-21.823475","name":"Santa Cruz das Palmeiras, SP <br> GPON","uf":"SP","color":"green"},{"tecnologia":"GPON","cidade":"Tambaú","longitude":"-47.270344","latitude":"-21.70292","name":"Tambaú, SP <br> GPON","uf":"SP","color":"green"},{"tecnologia":"GPON","cidade":"Araguaína","longitude":"-48.204402","latitude":"-7.192375","name":"Araguaína, TO <br> GPON","uf":"TO","color":"green"},{"tecnologia":"GPON","cidade":"Gurupi","longitude":"-49.068046","latitude":"-11.72794","name":"Gurupi, TO <br> GPON","uf":"TO","color":"green"}]
