[{"cidade":"Arapiraca","latitude":"-9.754866","color":"green","longitude":"-36.661471","tecnologia":"GPON","uf":"AL","name":"Arapiraca, AL <br> GPON"},{"cidade":"Trindade","latitude":"-16.651708","color":"green","longitude":"-49.492667","tecnologia":"GPON","uf":"GO","name":"Trindade, GO <br> GPON"},{"cidade":"Araxá","latitude":"-19.590176","color":"green","longitude":"-46.943804","tecnologia":"GPON","uf":"MG","name":"Araxá, MG <br> GPON"},{"cidade":"Itajubá","latitude":"-22.422481","color":"green","longitude":"-45.459818","tecnologia":"GPON","uf":"MG","name":"Itajubá, MG <br> GPON"},{"cidade":"Paraíba Do Sul","latitude":"-22.158462","color":"green","longitude":"-43.304004","tecnologia":"GPON","uf":"RJ","name":"Paraíba Do Sul, RJ <br> GPON"},{"cidade":"Ji-Paraná","latitude":"-10.877741","color":"green","longitude":"-61.932152","tecnologia":"GPON","uf":"RO","name":"Ji-Paraná, RO <br> GPON"},{"cidade":"Camaquã","latitude":"-30.848897","color":"green","longitude":"-51.80431","tecnologia":"GPON","uf":"RS","name":"Camaquã, RS <br> GPON"},{"cidade":"Dois Irmãos","latitude":"-29.58356","color":"green","longitude":"-51.089776","tecnologia":"GPON","uf":"RS","name":"Dois Irmãos, RS <br> GPON"},{"cidade":"Marau","latitude":"-28.449754","color":"green","longitude":"-52.198625","tecnologia":"GPON","uf":"RS","name":"Marau, RS <br> GPON"},{"cidade":"Vacaria","latitude":"-28.507868","color":"green","longitude":"-50.941791","tecnologia":"GPON","uf":"RS","name":"Vacaria, RS <br> GPON"},{"cidade":"Içara","latitude":"-28.713206","color":"green","longitude":"-49.308654","tecnologia":"GPON","uf":"SC","name":"Içara, SC <br> GPON"},{"cidade":"Agudos","latitude":"-22.469433","color":"green","longitude":"-48.98632","tecnologia":"GPON","uf":"SP","name":"Agudos, SP <br> GPON"},{"cidade":"Casa Branca","latitude":"-21.77081","color":"green","longitude":"-47.085245","tecnologia":"GPON","uf":"SP","name":"Casa Branca, SP <br> GPON"},{"cidade":"Ibaté","latitude":"-21.958358","color":"green","longitude":"-47.988211","tecnologia":"GPON","uf":"SP","name":"Ibaté, SP <br> GPON"},{"cidade":"Jaguariúna","latitude":"-22.70374","color":"green","longitude":"-46.985062","tecnologia":"GPON","uf":"SP","name":"Jaguariúna, SP <br> GPON"},{"cidade":"Piedade","latitude":"-23.713941","color":"green","longitude":"-47.425572","tecnologia":"GPON","uf":"SP","name":"Piedade, SP <br> GPON"},{"cidade":"Santa Cruz das Palmeiras","latitude":"-21.823475","color":"green","longitude":"-47.248023","tecnologia":"GPON","uf":"SP","name":"Santa Cruz das Palmeiras, SP <br> GPON"},{"cidade":"Tambaú","latitude":"-21.70292","color":"green","longitude":"-47.270344","tecnologia":"GPON","uf":"SP","name":"Tambaú, SP <br> GPON"},{"cidade":"Araguaína","latitude":"-7.192375","color":"green","longitude":"-48.204402","tecnologia":"GPON","uf":"TO","name":"Araguaína, TO <br> GPON"},{"cidade":"Gurupi","latitude":"-11.72794","color":"green","longitude":"-49.068046","tecnologia":"GPON","uf":"TO","name":"Gurupi, TO <br> GPON"}]
