[{"latitude":"-9.754866","uf":"AL","longitude":"-36.661471","name":"Arapiraca, AL <br> GPON","color":"green","tecnologia":"GPON","cidade":"Arapiraca"},{"latitude":"-16.651708","uf":"GO","longitude":"-49.492667","name":"Trindade, GO <br> GPON","color":"green","tecnologia":"GPON","cidade":"Trindade"},{"latitude":"-19.590176","uf":"MG","longitude":"-46.943804","name":"Araxá, MG <br> GPON","color":"green","tecnologia":"GPON","cidade":"Araxá"},{"latitude":"-22.422481","uf":"MG","longitude":"-45.459818","name":"Itajubá, MG <br> GPON","color":"green","tecnologia":"GPON","cidade":"Itajubá"},{"latitude":"-22.158462","uf":"RJ","longitude":"-43.304004","name":"Paraíba Do Sul, RJ <br> GPON","color":"green","tecnologia":"GPON","cidade":"Paraíba Do Sul"},{"latitude":"-10.877741","uf":"RO","longitude":"-61.932152","name":"Ji-Paraná, RO <br> GPON","color":"green","tecnologia":"GPON","cidade":"Ji-Paraná"},{"latitude":"-30.848897","uf":"RS","longitude":"-51.80431","name":"Camaquã, RS <br> GPON","color":"green","tecnologia":"GPON","cidade":"Camaquã"},{"latitude":"-29.58356","uf":"RS","longitude":"-51.089776","name":"Dois Irmãos, RS <br> GPON","color":"green","tecnologia":"GPON","cidade":"Dois Irmãos"},{"latitude":"-28.449754","uf":"RS","longitude":"-52.198625","name":"Marau, RS <br> GPON","color":"green","tecnologia":"GPON","cidade":"Marau"},{"latitude":"-28.507868","uf":"RS","longitude":"-50.941791","name":"Vacaria, RS <br> GPON","color":"green","tecnologia":"GPON","cidade":"Vacaria"},{"latitude":"-28.713206","uf":"SC","longitude":"-49.308654","name":"Içara, SC <br> GPON","color":"green","tecnologia":"GPON","cidade":"Içara"},{"latitude":"-22.469433","uf":"SP","longitude":"-48.98632","name":"Agudos, SP <br> GPON","color":"green","tecnologia":"GPON","cidade":"Agudos"},{"latitude":"-21.77081","uf":"SP","longitude":"-47.085245","name":"Casa Branca, SP <br> GPON","color":"green","tecnologia":"GPON","cidade":"Casa Branca"},{"latitude":"-21.958358","uf":"SP","longitude":"-47.988211","name":"Ibaté, SP <br> GPON","color":"green","tecnologia":"GPON","cidade":"Ibaté"},{"latitude":"-22.70374","uf":"SP","longitude":"-46.985062","name":"Jaguariúna, SP <br> GPON","color":"green","tecnologia":"GPON","cidade":"Jaguariúna"},{"latitude":"-23.713941","uf":"SP","longitude":"-47.425572","name":"Piedade, SP <br> GPON","color":"green","tecnologia":"GPON","cidade":"Piedade"},{"latitude":"-21.823475","uf":"SP","longitude":"-47.248023","name":"Santa Cruz das Palmeiras, SP <br> GPON","color":"green","tecnologia":"GPON","cidade":"Santa Cruz das Palmeiras"},{"latitude":"-21.70292","uf":"SP","longitude":"-47.270344","name":"Tambaú, SP <br> GPON","color":"green","tecnologia":"GPON","cidade":"Tambaú"},{"latitude":"-7.192375","uf":"TO","longitude":"-48.204402","name":"Araguaína, TO <br> GPON","color":"green","tecnologia":"GPON","cidade":"Araguaína"},{"latitude":"-11.72794","uf":"TO","longitude":"-49.068046","name":"Gurupi, TO <br> GPON","color":"green","tecnologia":"GPON","cidade":"Gurupi"}]
