[{"tecnologia":"GPON","color":"green","uf":"AL","name":"Arapiraca, AL <br> GPON","longitude":"-36.661471","cidade":"Arapiraca","latitude":"-9.754866"},{"tecnologia":"GPON","color":"green","uf":"GO","name":"Trindade, GO <br> GPON","longitude":"-49.492667","cidade":"Trindade","latitude":"-16.651708"},{"tecnologia":"GPON","color":"green","uf":"MG","name":"Araxá, MG <br> GPON","longitude":"-46.943804","cidade":"Araxá","latitude":"-19.590176"},{"tecnologia":"GPON","color":"green","uf":"MG","name":"Itajubá, MG <br> GPON","longitude":"-45.459818","cidade":"Itajubá","latitude":"-22.422481"},{"tecnologia":"GPON","color":"green","uf":"RJ","name":"Paraíba Do Sul, RJ <br> GPON","longitude":"-43.304004","cidade":"Paraíba Do Sul","latitude":"-22.158462"},{"tecnologia":"GPON","color":"green","uf":"RO","name":"Ji-Paraná, RO <br> GPON","longitude":"-61.932152","cidade":"Ji-Paraná","latitude":"-10.877741"},{"tecnologia":"GPON","color":"green","uf":"RS","name":"Camaquã, RS <br> GPON","longitude":"-51.80431","cidade":"Camaquã","latitude":"-30.848897"},{"tecnologia":"GPON","color":"green","uf":"RS","name":"Dois Irmãos, RS <br> GPON","longitude":"-51.089776","cidade":"Dois Irmãos","latitude":"-29.58356"},{"tecnologia":"GPON","color":"green","uf":"RS","name":"Marau, RS <br> GPON","longitude":"-52.198625","cidade":"Marau","latitude":"-28.449754"},{"tecnologia":"GPON","color":"green","uf":"RS","name":"Vacaria, RS <br> GPON","longitude":"-50.941791","cidade":"Vacaria","latitude":"-28.507868"},{"tecnologia":"GPON","color":"green","uf":"SC","name":"Içara, SC <br> GPON","longitude":"-49.308654","cidade":"Içara","latitude":"-28.713206"},{"tecnologia":"GPON","color":"green","uf":"SP","name":"Agudos, SP <br> GPON","longitude":"-48.98632","cidade":"Agudos","latitude":"-22.469433"},{"tecnologia":"GPON","color":"green","uf":"SP","name":"Casa Branca, SP <br> GPON","longitude":"-47.085245","cidade":"Casa Branca","latitude":"-21.77081"},{"tecnologia":"GPON","color":"green","uf":"SP","name":"Ibaté, SP <br> GPON","longitude":"-47.988211","cidade":"Ibaté","latitude":"-21.958358"},{"tecnologia":"GPON","color":"green","uf":"SP","name":"Jaguariúna, SP <br> GPON","longitude":"-46.985062","cidade":"Jaguariúna","latitude":"-22.70374"},{"tecnologia":"GPON","color":"green","uf":"SP","name":"Piedade, SP <br> GPON","longitude":"-47.425572","cidade":"Piedade","latitude":"-23.713941"},{"tecnologia":"GPON","color":"green","uf":"SP","name":"Santa Cruz das Palmeiras, SP <br> GPON","longitude":"-47.248023","cidade":"Santa Cruz das Palmeiras","latitude":"-21.823475"},{"tecnologia":"GPON","color":"green","uf":"SP","name":"Tambaú, SP <br> GPON","longitude":"-47.270344","cidade":"Tambaú","latitude":"-21.70292"},{"tecnologia":"GPON","color":"green","uf":"TO","name":"Araguaína, TO <br> GPON","longitude":"-48.204402","cidade":"Araguaína","latitude":"-7.192375"},{"tecnologia":"GPON","color":"green","uf":"TO","name":"Gurupi, TO <br> GPON","longitude":"-49.068046","cidade":"Gurupi","latitude":"-11.72794"}]
