[{"color":"green","uf":"AL","longitude":"-36.661471","cidade":"Arapiraca","tecnologia":"GPON","latitude":"-9.754866","name":"Arapiraca, AL <br> GPON"},{"color":"green","uf":"GO","longitude":"-49.492667","cidade":"Trindade","tecnologia":"GPON","latitude":"-16.651708","name":"Trindade, GO <br> GPON"},{"color":"green","uf":"MG","longitude":"-46.943804","cidade":"Araxá","tecnologia":"GPON","latitude":"-19.590176","name":"Araxá, MG <br> GPON"},{"color":"green","uf":"MG","longitude":"-45.459818","cidade":"Itajubá","tecnologia":"GPON","latitude":"-22.422481","name":"Itajubá, MG <br> GPON"},{"color":"green","uf":"RJ","longitude":"-43.304004","cidade":"Paraíba Do Sul","tecnologia":"GPON","latitude":"-22.158462","name":"Paraíba Do Sul, RJ <br> GPON"},{"color":"green","uf":"RO","longitude":"-61.932152","cidade":"Ji-Paraná","tecnologia":"GPON","latitude":"-10.877741","name":"Ji-Paraná, RO <br> GPON"},{"color":"green","uf":"RS","longitude":"-51.80431","cidade":"Camaquã","tecnologia":"GPON","latitude":"-30.848897","name":"Camaquã, RS <br> GPON"},{"color":"green","uf":"RS","longitude":"-51.089776","cidade":"Dois Irmãos","tecnologia":"GPON","latitude":"-29.58356","name":"Dois Irmãos, RS <br> GPON"},{"color":"green","uf":"RS","longitude":"-52.198625","cidade":"Marau","tecnologia":"GPON","latitude":"-28.449754","name":"Marau, RS <br> GPON"},{"color":"green","uf":"RS","longitude":"-50.941791","cidade":"Vacaria","tecnologia":"GPON","latitude":"-28.507868","name":"Vacaria, RS <br> GPON"},{"color":"green","uf":"SC","longitude":"-49.308654","cidade":"Içara","tecnologia":"GPON","latitude":"-28.713206","name":"Içara, SC <br> GPON"},{"color":"green","uf":"SP","longitude":"-48.98632","cidade":"Agudos","tecnologia":"GPON","latitude":"-22.469433","name":"Agudos, SP <br> GPON"},{"color":"green","uf":"SP","longitude":"-47.085245","cidade":"Casa Branca","tecnologia":"GPON","latitude":"-21.77081","name":"Casa Branca, SP <br> GPON"},{"color":"green","uf":"SP","longitude":"-47.988211","cidade":"Ibaté","tecnologia":"GPON","latitude":"-21.958358","name":"Ibaté, SP <br> GPON"},{"color":"green","uf":"SP","longitude":"-46.985062","cidade":"Jaguariúna","tecnologia":"GPON","latitude":"-22.70374","name":"Jaguariúna, SP <br> GPON"},{"color":"green","uf":"SP","longitude":"-47.425572","cidade":"Piedade","tecnologia":"GPON","latitude":"-23.713941","name":"Piedade, SP <br> GPON"},{"color":"green","uf":"SP","longitude":"-47.248023","cidade":"Santa Cruz das Palmeiras","tecnologia":"GPON","latitude":"-21.823475","name":"Santa Cruz das Palmeiras, SP <br> GPON"},{"color":"green","uf":"SP","longitude":"-47.270344","cidade":"Tambaú","tecnologia":"GPON","latitude":"-21.70292","name":"Tambaú, SP <br> GPON"},{"color":"green","uf":"TO","longitude":"-48.204402","cidade":"Araguaína","tecnologia":"GPON","latitude":"-7.192375","name":"Araguaína, TO <br> GPON"},{"color":"green","uf":"TO","longitude":"-49.068046","cidade":"Gurupi","tecnologia":"GPON","latitude":"-11.72794","name":"Gurupi, TO <br> GPON"}]
