[{"cidade":"Arapiraca","name":"Arapiraca, AL <br> GPON","color":"green","longitude":"-36.661471","tecnologia":"GPON","latitude":"-9.754866","uf":"AL"},{"cidade":"Trindade","name":"Trindade, GO <br> GPON","color":"green","longitude":"-49.492667","tecnologia":"GPON","latitude":"-16.651708","uf":"GO"},{"cidade":"Araxá","name":"Araxá, MG <br> GPON","color":"green","longitude":"-46.943804","tecnologia":"GPON","latitude":"-19.590176","uf":"MG"},{"cidade":"Itajubá","name":"Itajubá, MG <br> GPON","color":"green","longitude":"-45.459818","tecnologia":"GPON","latitude":"-22.422481","uf":"MG"},{"cidade":"Paraíba Do Sul","name":"Paraíba Do Sul, RJ <br> GPON","color":"green","longitude":"-43.304004","tecnologia":"GPON","latitude":"-22.158462","uf":"RJ"},{"cidade":"Ji-Paraná","name":"Ji-Paraná, RO <br> GPON","color":"green","longitude":"-61.932152","tecnologia":"GPON","latitude":"-10.877741","uf":"RO"},{"cidade":"Camaquã","name":"Camaquã, RS <br> GPON","color":"green","longitude":"-51.80431","tecnologia":"GPON","latitude":"-30.848897","uf":"RS"},{"cidade":"Dois Irmãos","name":"Dois Irmãos, RS <br> GPON","color":"green","longitude":"-51.089776","tecnologia":"GPON","latitude":"-29.58356","uf":"RS"},{"cidade":"Marau","name":"Marau, RS <br> GPON","color":"green","longitude":"-52.198625","tecnologia":"GPON","latitude":"-28.449754","uf":"RS"},{"cidade":"Vacaria","name":"Vacaria, RS <br> GPON","color":"green","longitude":"-50.941791","tecnologia":"GPON","latitude":"-28.507868","uf":"RS"},{"cidade":"Içara","name":"Içara, SC <br> GPON","color":"green","longitude":"-49.308654","tecnologia":"GPON","latitude":"-28.713206","uf":"SC"},{"cidade":"Agudos","name":"Agudos, SP <br> GPON","color":"green","longitude":"-48.98632","tecnologia":"GPON","latitude":"-22.469433","uf":"SP"},{"cidade":"Casa Branca","name":"Casa Branca, SP <br> GPON","color":"green","longitude":"-47.085245","tecnologia":"GPON","latitude":"-21.77081","uf":"SP"},{"cidade":"Ibaté","name":"Ibaté, SP <br> GPON","color":"green","longitude":"-47.988211","tecnologia":"GPON","latitude":"-21.958358","uf":"SP"},{"cidade":"Jaguariúna","name":"Jaguariúna, SP <br> GPON","color":"green","longitude":"-46.985062","tecnologia":"GPON","latitude":"-22.70374","uf":"SP"},{"cidade":"Piedade","name":"Piedade, SP <br> GPON","color":"green","longitude":"-47.425572","tecnologia":"GPON","latitude":"-23.713941","uf":"SP"},{"cidade":"Santa Cruz das Palmeiras","name":"Santa Cruz das Palmeiras, SP <br> GPON","color":"green","longitude":"-47.248023","tecnologia":"GPON","latitude":"-21.823475","uf":"SP"},{"cidade":"Tambaú","name":"Tambaú, SP <br> GPON","color":"green","longitude":"-47.270344","tecnologia":"GPON","latitude":"-21.70292","uf":"SP"},{"cidade":"Araguaína","name":"Araguaína, TO <br> GPON","color":"green","longitude":"-48.204402","tecnologia":"GPON","latitude":"-7.192375","uf":"TO"},{"cidade":"Gurupi","name":"Gurupi, TO <br> GPON","color":"green","longitude":"-49.068046","tecnologia":"GPON","latitude":"-11.72794","uf":"TO"},{"cidade":"Santana","name":"Santana, AP <br> GPON","color":"green","longitude":"-51.172924","tecnologia":"GPON","latitude":"-0.045434","uf":"AP"},{"cidade":"Alagoinhas","name":"Alagoinhas, BA <br> GPON","color":"green","longitude":"-38.420772","tecnologia":"GPON","latitude":"-12.133526","uf":"BA"},{"cidade":"Barreiras","name":"Barreiras, BA <br> GPON","color":"green","longitude":"-44.996838","tecnologia":"GPON","latitude":"-12.143864","uf":"BA"},{"cidade":"Feira de Santana","name":"Feira de Santana, BA <br> GPON","color":"green","longitude":"-38.966293","tecnologia":"GPON","latitude":"-12.266429","uf":"BA"},{"cidade":"Itabuna","name":"Itabuna, BA <br> GPON","color":"green","longitude":"-39.278056","tecnologia":"GPON","latitude":"-14.787573","uf":"BA"},{"cidade":"Juazeiro","name":"Juazeiro, BA <br> GPON","color":"green","longitude":"-40.503251","tecnologia":"GPON","latitude":"-9.416217","uf":"BA"},{"cidade":"Porto Seguro","name":"Porto Seguro, BA <br> GPON","color":"green","longitude":"-39.064251","tecnologia":"GPON","latitude":"-16.443473","uf":"BA"},{"cidade":"Teixeira de Freitas","name":"Teixeira de Freitas, BA <br> GPON","color":"green","longitude":"-39.739962","tecnologia":"GPON","latitude":"-17.539915","uf":"BA"},{"cidade":"Aquiraz","name":"Aquiraz, CE <br> GPON","color":"green","longitude":"-38.389563","tecnologia":"GPON","latitude":"-3.899293","uf":"CE"},{"cidade":"Juazeiro do Norte","name":"Juazeiro do Norte, CE <br> GPON","color":"green","longitude":"-39.307593","tecnologia":"GPON","latitude":"-7.196207","uf":"CE"},{"cidade":"Sobral","name":"Sobral, CE <br> GPON","color":"green","longitude":"-40.34821","tecnologia":"GPON","latitude":"-3.689133","uf":"CE"},{"cidade":"Aracruz","name":"Aracruz, ES <br> GPON","color":"green","longitude":"-40.276441","tecnologia":"GPON","latitude":"-19.820045","uf":"ES"},{"cidade":"Colatina","name":"Colatina, ES <br> GPON","color":"green","longitude":"-40.626898","tecnologia":"GPON","latitude":"-19.549316","uf":"ES"},{"cidade":"Caldas Novas","name":"Caldas Novas, GO <br> GPON","color":"green","longitude":"-48.624579","tecnologia":"GPON","latitude":"-17.74406","uf":"GO"},{"cidade":"Formosa","name":"Formosa, GO <br> GPON","color":"green","longitude":"-47.336999","tecnologia":"GPON","latitude":"-15.539991","uf":"GO"},{"cidade":"Itumbiara","name":"Itumbiara, GO <br> GPON","color":"green","longitude":"-49.215845","tecnologia":"GPON","latitude":"-18.409267","uf":"GO"},{"cidade":"Rio Verde","name":"Rio Verde, GO <br> GPON","color":"green","longitude":"-50.919195","tecnologia":"GPON","latitude":"-17.792266","uf":"GO"},{"cidade":"Senador Canedo","name":"Senador Canedo, GO <br> GPON","color":"green","longitude":"-49.091398","tecnologia":"GPON","latitude":"-16.708401","uf":"GO"},{"cidade":"Caxias","name":"Caxias, MA <br> GPON","color":"green","longitude":"-43.361749","tecnologia":"GPON","latitude":"-4.865053","uf":"MA"},{"cidade":"Imperatriz","name":"Imperatriz, MA <br> GPON","color":"green","longitude":"-47.477726","tecnologia":"GPON","latitude":"-5.518471","uf":"MA"},{"cidade":"Timon","name":"Timon, MA <br> GPON","color":"green","longitude":"-42.83292","tecnologia":"GPON","latitude":"-5.097692","uf":"MA"},{"cidade":"Araguari","name":"Araguari, MG <br> GPON","color":"green","longitude":"-48.193392","tecnologia":"GPON","latitude":"-18.645575","uf":"MG"},{"cidade":"Barbacena","name":"Barbacena, MG <br> GPON","color":"green","longitude":"-43.770266","tecnologia":"GPON","latitude":"-21.221446","uf":"MG"},{"cidade":"Cataguases","name":"Cataguases, MG <br> GPON","color":"green","longitude":"-42.689647","tecnologia":"GPON","latitude":"-21.39239","uf":"MG"},{"cidade":"Conselheiro Lafaiete","name":"Conselheiro Lafaiete, MG <br> GPON","color":"green","longitude":"-43.784609","tecnologia":"GPON","latitude":"-20.663445","uf":"MG"},{"cidade":"Coronel Fabriciano","name":"Coronel Fabriciano, MG <br> GPON","color":"green","longitude":"-42.627585","tecnologia":"GPON","latitude":"-19.517879","uf":"MG"},{"cidade":"Itabira","name":"Itabira, MG <br> GPON","color":"green","longitude":"-43.23123","tecnologia":"GPON","latitude":"-19.623936","uf":"MG"},{"cidade":"Ituiutaba","name":"Ituiutaba, MG <br> GPON","color":"green","longitude":"-49.463945","tecnologia":"GPON","latitude":"-18.977191","uf":"MG"},{"cidade":"Lagoa Santa","name":"Lagoa Santa, MG <br> GPON","color":"green","longitude":"-43.893216","tecnologia":"GPON","latitude":"-19.63967","uf":"MG"},{"cidade":"Lavras","name":"Lavras, MG <br> GPON","color":"green","longitude":"-45.000949","tecnologia":"GPON","latitude":"-21.248002","uf":"MG"},{"cidade":"Montes Claros","name":"Montes Claros, MG <br> GPON","color":"green","longitude":"-43.857809","tecnologia":"GPON","latitude":"-16.728177","uf":"MG"},{"cidade":"Passos","name":"Passos, MG <br> GPON","color":"green","longitude":"-46.609008","tecnologia":"GPON","latitude":"-20.719271","uf":"MG"},{"cidade":"Patos de Minas","name":"Patos de Minas, MG <br> GPON","color":"green","longitude":"-46.501268","tecnologia":"GPON","latitude":"-18.569938","uf":"MG"},{"cidade":"Pouso Alegre","name":"Pouso Alegre, MG <br> GPON","color":"green","longitude":"-45.938935","tecnologia":"GPON","latitude":"-22.22659","uf":"MG"},{"cidade":"Santa Luzia","name":"Santa Luzia, MG <br> GPON","color":"green","longitude":"-43.849658","tecnologia":"GPON","latitude":"-19.754824","uf":"MG"},{"cidade":"Vespasiano","name":"Vespasiano, MG <br> GPON","color":"green","longitude":"-43.9239","tecnologia":"GPON","latitude":"-19.688326","uf":"MG"},{"cidade":"Lucas do Rio Verde","name":"Lucas do Rio Verde, MT <br> GPON","color":"green","longitude":"-55.904202","tecnologia":"GPON","latitude":"-13.058796","uf":"MT"},{"cidade":"Nova Mutum","name":"Nova Mutum, MT <br> GPON","color":"green","longitude":"-56.074316","tecnologia":"GPON","latitude":"-13.837389","uf":"MT"},{"cidade":"Sinop","name":"Sinop, MT <br> GPON","color":"green","longitude":"-55.509062","tecnologia":"GPON","latitude":"-11.86043","uf":"MT"},{"cidade":"Sorriso","name":"Sorriso, MT <br> GPON","color":"green","longitude":"-55.721051","tecnologia":"GPON","latitude":"-12.542527","uf":"MT"},{"cidade":"Castanhal","name":"Castanhal, PA <br> GPON","color":"green","longitude":"-47.916742","tecnologia":"GPON","latitude":"-1.297971","uf":"PA"},{"cidade":"Paragominas","name":"Paragominas, PA <br> GPON","color":"green","longitude":"-47.352692","tecnologia":"GPON","latitude":"-3.002116","uf":"PA"},{"cidade":"Parauapebas","name":"Parauapebas, PA <br> GPON","color":"green","longitude":"-49.903733","tecnologia":"GPON","latitude":"-6.067812","uf":"PA"},{"cidade":"Petrolina","name":"Petrolina, PE <br> GPON","color":"green","longitude":"-40.502731","tecnologia":"GPON","latitude":"-9.388662","uf":"PE"},{"cidade":"Apucarana","name":"Apucarana, PR <br> GPON","color":"green","longitude":"-51.463486","tecnologia":"GPON","latitude":"-23.549961","uf":"PR"},{"cidade":"Cabo Frio","name":"Cabo Frio, RJ <br> GPON","color":"green","longitude":"-42.028595","tecnologia":"GPON","latitude":"-22.88943","uf":"RJ"},{"cidade":"Miguel Pereira","name":"Miguel Pereira, RJ <br> GPON","color":"green","longitude":"-43.480275","tecnologia":"GPON","latitude":"-22.457242","uf":"RJ"},{"cidade":"Nova Friburgo","name":"Nova Friburgo, RJ <br> GPON","color":"green","longitude":"-42.537692","tecnologia":"GPON","latitude":"-22.293224","uf":"RJ"},{"cidade":"Vassouras","name":"Vassouras, RJ <br> GPON","color":"green","longitude":"-43.668555","tecnologia":"GPON","latitude":"-22.405889","uf":"RJ"},{"cidade":"Ariquemes","name":"Ariquemes, RO <br> GPON","color":"green","longitude":"-63.032516","tecnologia":"GPON","latitude":"-9.905711","uf":"RO"},{"cidade":"Cacoal","name":"Cacoal, RO <br> GPON","color":"green","longitude":"-61.456167","tecnologia":"GPON","latitude":"-11.434271","uf":"RO"},{"cidade":"Vilhena","name":"Vilhena, RO <br> GPON","color":"green","longitude":"-60.148847","tecnologia":"GPON","latitude":"-12.750183","uf":"RO"},{"cidade":"Alegrete","name":"Alegrete, RS <br> GPON","color":"green","longitude":"-55.794862","tecnologia":"GPON","latitude":"-29.790166","uf":"RS"},{"cidade":"Arroio do Meio","name":"Arroio do Meio, RS <br> GPON","color":"green","longitude":"-51.955735","tecnologia":"GPON","latitude":"-29.401353","uf":"RS"},{"cidade":"Cachoeira do Sul","name":"Cachoeira do Sul, RS <br> GPON","color":"green","longitude":"-52.892756","tecnologia":"GPON","latitude":"-30.032988","uf":"RS"},{"cidade":"Canela","name":"Canela, RS <br> GPON","color":"green","longitude":"-50.811921","tecnologia":"GPON","latitude":"-29.355993","uf":"RS"},{"cidade":"Carazinho","name":"Carazinho, RS <br> GPON","color":"green","longitude":"-52.79326","tecnologia":"GPON","latitude":"-28.295844","uf":"RS"},{"cidade":"Carlos Barbosa","name":"Carlos Barbosa, RS <br> GPON","color":"green","longitude":"-51.502847","tecnologia":"GPON","latitude":"-29.296949","uf":"RS"},{"cidade":"Charqueadas","name":"Charqueadas, RS <br> GPON","color":"green","longitude":"-51.628872","tecnologia":"GPON","latitude":"-29.962478","uf":"RS"},{"cidade":"Eldorado do Sul","name":"Eldorado do Sul, RS <br> GPON","color":"green","longitude":"-51.618702","tecnologia":"GPON","latitude":"-30.084676","uf":"RS"},{"cidade":"Encantado","name":"Encantado, RS <br> GPON","color":"green","longitude":"-51.870282","tecnologia":"GPON","latitude":"-29.235141","uf":"RS"},{"cidade":"Estrela","name":"Estrela, RS <br> GPON","color":"green","longitude":"-51.949508","tecnologia":"GPON","latitude":"-29.500207","uf":"RS"},{"cidade":"Frederico Westphalen","name":"Frederico Westphalen, RS <br> GPON","color":"green","longitude":"-53.395824","tecnologia":"GPON","latitude":"-27.358644","uf":"RS"},{"cidade":"Garibaldi","name":"Garibaldi, RS <br> GPON","color":"green","longitude":"-51.535179","tecnologia":"GPON","latitude":"-29.258979","uf":"RS"},{"cidade":"Gramado","name":"Gramado, RS <br> GPON","color":"green","longitude":"-50.876164","tecnologia":"GPON","latitude":"-29.373351","uf":"RS"},{"cidade":"Igrejinha","name":"Igrejinha, RS <br> GPON","color":"green","longitude":"-50.791894","tecnologia":"GPON","latitude":"-29.569318","uf":"RS"},{"cidade":"Itaqui","name":"Itaqui, RS <br> GPON","color":"green","longitude":"-56.551478","tecnologia":"GPON","latitude":"-29.131051","uf":"RS"},{"cidade":"Ivoti","name":"Ivoti, RS <br> GPON","color":"green","longitude":"-51.153326","tecnologia":"GPON","latitude":"-29.599463","uf":"RS"},{"cidade":"Montenegro","name":"Montenegro, RS <br> GPON","color":"green","longitude":"-51.467903","tecnologia":"GPON","latitude":"-29.682414","uf":"RS"},{"cidade":"Panambi","name":"Panambi, RS <br> GPON","color":"green","longitude":"-53.502261","tecnologia":"GPON","latitude":"-28.283328","uf":"RS"},{"cidade":"Rio Pardo","name":"Rio Pardo, RS <br> GPON","color":"green","longitude":"-52.37113","tecnologia":"GPON","latitude":"-29.98803","uf":"RS"},{"cidade":"Santa Rosa","name":"Santa Rosa, RS <br> GPON","color":"green","longitude":"-54.479629","tecnologia":"GPON","latitude":"-27.8702","uf":"RS"},{"cidade":"Santana do Livramento","name":"Santana do Livramento, RS <br> GPON","color":"green","longitude":"-55.531467","tecnologia":"GPON","latitude":"-30.88772","uf":"RS"},{"cidade":"Taquara","name":"Taquara, RS <br> GPON","color":"green","longitude":"-50.775278","tecnologia":"GPON","latitude":"-29.650471","uf":"RS"},{"cidade":"Torres","name":"Torres, RS <br> GPON","color":"green","longitude":"-49.733289","tecnologia":"GPON","latitude":"-29.333438","uf":"RS"},{"cidade":"Vera Cruz","name":"Vera Cruz, RS <br> GPON","color":"green","longitude":"-52.515176","tecnologia":"GPON","latitude":"-29.718435","uf":"RS"},{"cidade":"Fraiburgo","name":"Fraiburgo, SC <br> GPON","color":"green","longitude":"-50.919978","tecnologia":"GPON","latitude":"-27.023288","uf":"SC"},{"cidade":"Gaspar","name":"Gaspar, SC <br> GPON","color":"green","longitude":"-48.953428","tecnologia":"GPON","latitude":"-26.933597","uf":"SC"},{"cidade":"Guaramirim","name":"Guaramirim, SC <br> GPON","color":"green","longitude":"-49.002628","tecnologia":"GPON","latitude":"-26.468753","uf":"SC"},{"cidade":"Indaial","name":"Indaial, SC <br> GPON","color":"green","longitude":"-49.235417","tecnologia":"GPON","latitude":"-26.899247","uf":"SC"},{"cidade":"Lages","name":"Lages, SC <br> GPON","color":"green","longitude":"-50.325862","tecnologia":"GPON","latitude":"-27.814966","uf":"SC"},{"cidade":"Mafra","name":"Mafra, SC <br> GPON","color":"green","longitude":"-49.808624","tecnologia":"GPON","latitude":"-26.115935","uf":"SC"},{"cidade":"Rio do Sul","name":"Rio do Sul, SC <br> GPON","color":"green","longitude":"-49.643016","tecnologia":"GPON","latitude":"-27.215596","uf":"SC"},{"cidade":"Rio Negrinho","name":"Rio Negrinho, SC <br> GPON","color":"green","longitude":"-49.517746","tecnologia":"GPON","latitude":"-26.259075","uf":"SC"},{"cidade":"Videira","name":"Videira, SC <br> GPON","color":"green","longitude":"-51.154274","tecnologia":"GPON","latitude":"-27.008624","uf":"SC"},{"cidade":"Xaxim","name":"Xaxim, SC <br> GPON","color":"green","longitude":"-52.537446","tecnologia":"GPON","latitude":"-26.959643","uf":"SC"},{"cidade":"Adamantina","name":"Adamantina, SP <br> GPON","color":"green","longitude":"-51.073695","tecnologia":"GPON","latitude":"-21.682012","uf":"SP"},{"cidade":"Amparo","name":"Amparo, SP <br> GPON","color":"green","longitude":"-46.772022","tecnologia":"GPON","latitude":"-22.70879","uf":"SP"},{"cidade":"Andradina","name":"Andradina, SP <br> GPON","color":"green","longitude":"-51.378568","tecnologia":"GPON","latitude":"-20.894761","uf":"SP"},{"cidade":"Bady Bassitt","name":"Bady Bassitt, SP <br> GPON","color":"green","longitude":"-49.4385","tecnologia":"GPON","latitude":"-20.919689","uf":"SP"},{"cidade":"Barretos","name":"Barretos, SP <br> GPON","color":"green","longitude":"-48.569832","tecnologia":"GPON","latitude":"-20.553146","uf":"SP"},{"cidade":"Barrinha","name":"Barrinha, SP <br> GPON","color":"green","longitude":"-48.163614","tecnologia":"GPON","latitude":"-21.186374","uf":"SP"},{"cidade":"Batatais","name":"Batatais, SP <br> GPON","color":"green","longitude":"-47.592149","tecnologia":"GPON","latitude":"-20.892867","uf":"SP"},{"cidade":"Bebedouro","name":"Bebedouro, SP <br> GPON","color":"green","longitude":"-48.479083","tecnologia":"GPON","latitude":"-20.949077","uf":"SP"},{"cidade":"Birigui","name":"Birigui, SP <br> GPON","color":"green","longitude":"-50.343162","tecnologia":"GPON","latitude":"-21.291034","uf":"SP"},{"cidade":"Boituva","name":"Boituva, SP <br> GPON","color":"green","longitude":"-47.678574","tecnologia":"GPON","latitude":"-23.285531","uf":"SP"},{"cidade":"Caieiras","name":"Caieiras, SP <br> GPON","color":"green","longitude":"-46.73974","tecnologia":"GPON","latitude":"-23.360729","uf":"SP"},{"cidade":"Cajamar","name":"Cajamar, SP <br> GPON","color":"green","longitude":"-46.878146","tecnologia":"GPON","latitude":"-23.355014","uf":"SP"},{"cidade":"Campo Limpo Paulista","name":"Campo Limpo Paulista, SP <br> GPON","color":"green","longitude":"-46.788919","tecnologia":"GPON","latitude":"-23.207791","uf":"SP"},{"cidade":"Caraguatatuba","name":"Caraguatatuba, SP <br> GPON","color":"green","longitude":"-45.412533","tecnologia":"GPON","latitude":"-23.612535","uf":"SP"},{"cidade":"Catanduva","name":"Catanduva, SP <br> GPON","color":"green","longitude":"-48.977015","tecnologia":"GPON","latitude":"-21.131381","uf":"SP"},{"cidade":"Cerquilho","name":"Cerquilho, SP <br> GPON","color":"green","longitude":"-47.745862","tecnologia":"GPON","latitude":"-23.166487","uf":"SP"},{"cidade":"Cravinhos","name":"Cravinhos, SP <br> GPON","color":"green","longitude":"-47.732427","tecnologia":"GPON","latitude":"-21.337959","uf":"SP"},{"cidade":"Descalvado","name":"Descalvado, SP <br> GPON","color":"green","longitude":"-47.618105","tecnologia":"GPON","latitude":"-21.900211","uf":"SP"},{"cidade":"Dracena","name":"Dracena, SP <br> GPON","color":"green","longitude":"-51.535034","tecnologia":"GPON","latitude":"-21.484311","uf":"SP"},{"cidade":"Guararapes","name":"Guararapes, SP <br> GPON","color":"green","longitude":"-50.645338","tecnologia":"GPON","latitude":"-21.254431","uf":"SP"},{"cidade":"Itapeva","name":"Itapeva, SP <br> GPON","color":"green","longitude":"-48.876433","tecnologia":"GPON","latitude":"-23.978823","uf":"SP"},{"cidade":"Itapira","name":"Itapira, SP <br> GPON","color":"green","longitude":"-46.822434","tecnologia":"GPON","latitude":"-22.435731","uf":"SP"},{"cidade":"Itaquaquecetuba","name":"Itaquaquecetuba, SP <br> GPON","color":"green","longitude":"-46.345724","tecnologia":"GPON","latitude":"-23.483481","uf":"SP"},{"cidade":"Itatiba","name":"Itatiba, SP <br> GPON","color":"green","longitude":"-46.846353","tecnologia":"GPON","latitude":"-23.003497","uf":"SP"},{"cidade":"Itupeva","name":"Itupeva, SP <br> GPON","color":"green","longitude":"-47.059262","tecnologia":"GPON","latitude":"-23.152635","uf":"SP"},{"cidade":"Ituverava","name":"Ituverava, SP <br> GPON","color":"green","longitude":"-47.790207","tecnologia":"GPON","latitude":"-20.335465","uf":"SP"},{"cidade":"Jaboticabal","name":"Jaboticabal, SP <br> GPON","color":"green","longitude":"-48.325223","tecnologia":"GPON","latitude":"-21.252037","uf":"SP"},{"cidade":"Jales","name":"Jales, SP <br> GPON","color":"green","longitude":"-50.549442","tecnologia":"GPON","latitude":"-20.267227","uf":"SP"},{"cidade":"Jarinu","name":"Jarinu, SP <br> GPON","color":"green","longitude":"-46.728015","tecnologia":"GPON","latitude":"-23.103855","uf":"SP"},{"cidade":"Laranjal Paulista","name":"Laranjal Paulista, SP <br> GPON","color":"green","longitude":"-47.837549","tecnologia":"GPON","latitude":"-23.050564","uf":"SP"},{"cidade":"Leme","name":"Leme, SP <br> GPON","color":"green","longitude":"-47.384109","tecnologia":"GPON","latitude":"-22.180857","uf":"SP"},{"cidade":"Lins","name":"Lins, SP <br> GPON","color":"green","longitude":"-49.752555","tecnologia":"GPON","latitude":"-21.67182","uf":"SP"},{"cidade":"Louveira","name":"Louveira, SP <br> GPON","color":"green","longitude":"-46.948369","tecnologia":"GPON","latitude":"-23.085572","uf":"SP"},{"cidade":"Mairinque","name":"Mairinque, SP <br> GPON","color":"green","longitude":"-47.184995","tecnologia":"GPON","latitude":"-23.539822","uf":"SP"},{"cidade":"Mirassol","name":"Mirassol, SP <br> GPON","color":"green","longitude":"-49.52061","tecnologia":"GPON","latitude":"-20.816874","uf":"SP"},{"cidade":"Mococa","name":"Mococa, SP <br> GPON","color":"green","longitude":"-47.002405","tecnologia":"GPON","latitude":"-21.464731","uf":"SP"},{"cidade":"Monte Alto","name":"Monte Alto, SP <br> GPON","color":"green","longitude":"-48.497066","tecnologia":"GPON","latitude":"-21.265545","uf":"SP"},{"cidade":"Morungaba","name":"Morungaba, SP <br> GPON","color":"green","longitude":"-46.789601","tecnologia":"GPON","latitude":"-22.881071","uf":"SP"},{"cidade":"Ourinhos","name":"Ourinhos, SP <br> GPON","color":"green","longitude":"-49.869702","tecnologia":"GPON","latitude":"-22.979695","uf":"SP"},{"cidade":"Pedreira","name":"Pedreira, SP <br> GPON","color":"green","longitude":"-46.894846","tecnologia":"GPON","latitude":"-22.741347","uf":"SP"},{"cidade":"Piracaia","name":"Piracaia, SP <br> GPON","color":"green","longitude":"-46.359374","tecnologia":"GPON","latitude":"-23.052545","uf":"SP"},{"cidade":"Pirassununga","name":"Pirassununga, SP <br> GPON","color":"green","longitude":"-47.425746","tecnologia":"GPON","latitude":"-21.995982","uf":"SP"},{"cidade":"Pontal","name":"Pontal, SP <br> GPON","color":"green","longitude":"-48.042261","tecnologia":"GPON","latitude":"-21.021565","uf":"SP"},{"cidade":"Porto Ferreira","name":"Porto Ferreira, SP <br> GPON","color":"green","longitude":"-47.487034","tecnologia":"GPON","latitude":"-21.849814","uf":"SP"},{"cidade":"Potirendaba","name":"Potirendaba, SP <br> GPON","color":"green","longitude":"-49.381509","tecnologia":"GPON","latitude":"-21.042789","uf":"SP"},{"cidade":"Presidente Bernardes","name":"Presidente Bernardes, SP <br> GPON","color":"green","longitude":"-51.556507","tecnologia":"GPON","latitude":"-22.008198","uf":"SP"},{"cidade":"Registro","name":"Registro, SP <br> GPON","color":"green","longitude":"-47.844895","tecnologia":"GPON","latitude":"-24.497942","uf":"SP"},{"cidade":"Santa Cruz do Rio Pardo","name":"Santa Cruz do Rio Pardo, SP <br> GPON","color":"green","longitude":"-49.635444","tecnologia":"GPON","latitude":"-22.89875","uf":"SP"},{"cidade":"Santa Gertrudes","name":"Santa Gertrudes, SP <br> GPON","color":"green","longitude":"-47.52716","tecnologia":"GPON","latitude":"-22.457229","uf":"SP"},{"cidade":"Santa Isabel","name":"Santa Isabel, SP <br> GPON","color":"green","longitude":"-46.223668","tecnologia":"GPON","latitude":"-23.317194","uf":"SP"},{"cidade":"Santa Rosa de Viterbo","name":"Santa Rosa de Viterbo, SP <br> GPON","color":"green","longitude":"-47.362213","tecnologia":"GPON","latitude":"-21.477568","uf":"SP"},{"cidade":"Serra Negra","name":"Serra Negra, SP <br> GPON","color":"green","longitude":"-46.703271","tecnologia":"GPON","latitude":"-22.613941","uf":"SP"},{"cidade":"Serrana","name":"Serrana, SP <br> GPON","color":"green","longitude":"-47.595239","tecnologia":"GPON","latitude":"-21.204336","uf":"SP"},{"cidade":"Ubatuba","name":"Ubatuba, SP <br> GPON","color":"green","longitude":"-45.083415","tecnologia":"GPON","latitude":"-23.433162","uf":"SP"},{"cidade":"Votuporanga","name":"Votuporanga, SP <br> GPON","color":"green","longitude":"-49.978112","tecnologia":"GPON","latitude":"-20.423659","uf":"SP"}]
