[{"longitude":"-36.661471","name":"Arapiraca, AL <br> GPON","tecnologia":"GPON","uf":"AL","cidade":"Arapiraca","color":"green","latitude":"-9.754866"},{"longitude":"-49.492667","name":"Trindade, GO <br> GPON","tecnologia":"GPON","uf":"GO","cidade":"Trindade","color":"green","latitude":"-16.651708"},{"longitude":"-46.943804","name":"Araxá, MG <br> GPON","tecnologia":"GPON","uf":"MG","cidade":"Araxá","color":"green","latitude":"-19.590176"},{"longitude":"-45.459818","name":"Itajubá, MG <br> GPON","tecnologia":"GPON","uf":"MG","cidade":"Itajubá","color":"green","latitude":"-22.422481"},{"longitude":"-43.304004","name":"Paraíba Do Sul, RJ <br> GPON","tecnologia":"GPON","uf":"RJ","cidade":"Paraíba Do Sul","color":"green","latitude":"-22.158462"},{"longitude":"-61.932152","name":"Ji-Paraná, RO <br> GPON","tecnologia":"GPON","uf":"RO","cidade":"Ji-Paraná","color":"green","latitude":"-10.877741"},{"longitude":"-51.80431","name":"Camaquã, RS <br> GPON","tecnologia":"GPON","uf":"RS","cidade":"Camaquã","color":"green","latitude":"-30.848897"},{"longitude":"-51.089776","name":"Dois Irmãos, RS <br> GPON","tecnologia":"GPON","uf":"RS","cidade":"Dois Irmãos","color":"green","latitude":"-29.58356"},{"longitude":"-52.198625","name":"Marau, RS <br> GPON","tecnologia":"GPON","uf":"RS","cidade":"Marau","color":"green","latitude":"-28.449754"},{"longitude":"-50.941791","name":"Vacaria, RS <br> GPON","tecnologia":"GPON","uf":"RS","cidade":"Vacaria","color":"green","latitude":"-28.507868"},{"longitude":"-49.308654","name":"Içara, SC <br> GPON","tecnologia":"GPON","uf":"SC","cidade":"Içara","color":"green","latitude":"-28.713206"},{"longitude":"-48.98632","name":"Agudos, SP <br> GPON","tecnologia":"GPON","uf":"SP","cidade":"Agudos","color":"green","latitude":"-22.469433"},{"longitude":"-47.085245","name":"Casa Branca, SP <br> GPON","tecnologia":"GPON","uf":"SP","cidade":"Casa Branca","color":"green","latitude":"-21.77081"},{"longitude":"-47.988211","name":"Ibaté, SP <br> GPON","tecnologia":"GPON","uf":"SP","cidade":"Ibaté","color":"green","latitude":"-21.958358"},{"longitude":"-46.985062","name":"Jaguariúna, SP <br> GPON","tecnologia":"GPON","uf":"SP","cidade":"Jaguariúna","color":"green","latitude":"-22.70374"},{"longitude":"-47.425572","name":"Piedade, SP <br> GPON","tecnologia":"GPON","uf":"SP","cidade":"Piedade","color":"green","latitude":"-23.713941"},{"longitude":"-47.248023","name":"Santa Cruz das Palmeiras, SP <br> GPON","tecnologia":"GPON","uf":"SP","cidade":"Santa Cruz das Palmeiras","color":"green","latitude":"-21.823475"},{"longitude":"-47.270344","name":"Tambaú, SP <br> GPON","tecnologia":"GPON","uf":"SP","cidade":"Tambaú","color":"green","latitude":"-21.70292"},{"longitude":"-48.204402","name":"Araguaína, TO <br> GPON","tecnologia":"GPON","uf":"TO","cidade":"Araguaína","color":"green","latitude":"-7.192375"},{"longitude":"-49.068046","name":"Gurupi, TO <br> GPON","tecnologia":"GPON","uf":"TO","cidade":"Gurupi","color":"green","latitude":"-11.72794"}]
