[{"cidade":"Arapiraca","longitude":"-36.661471","latitude":"-9.754866","color":"green","uf":"AL","name":"Arapiraca, AL <br> GPON","tecnologia":"GPON"},{"cidade":"Trindade","longitude":"-49.492667","latitude":"-16.651708","color":"green","uf":"GO","name":"Trindade, GO <br> GPON","tecnologia":"GPON"},{"cidade":"Araxá","longitude":"-46.943804","latitude":"-19.590176","color":"green","uf":"MG","name":"Araxá, MG <br> GPON","tecnologia":"GPON"},{"cidade":"Itajubá","longitude":"-45.459818","latitude":"-22.422481","color":"green","uf":"MG","name":"Itajubá, MG <br> GPON","tecnologia":"GPON"},{"cidade":"Paraíba Do Sul","longitude":"-43.304004","latitude":"-22.158462","color":"green","uf":"RJ","name":"Paraíba Do Sul, RJ <br> GPON","tecnologia":"GPON"},{"cidade":"Ji-Paraná","longitude":"-61.932152","latitude":"-10.877741","color":"green","uf":"RO","name":"Ji-Paraná, RO <br> GPON","tecnologia":"GPON"},{"cidade":"Camaquã","longitude":"-51.80431","latitude":"-30.848897","color":"green","uf":"RS","name":"Camaquã, RS <br> GPON","tecnologia":"GPON"},{"cidade":"Dois Irmãos","longitude":"-51.089776","latitude":"-29.58356","color":"green","uf":"RS","name":"Dois Irmãos, RS <br> GPON","tecnologia":"GPON"},{"cidade":"Marau","longitude":"-52.198625","latitude":"-28.449754","color":"green","uf":"RS","name":"Marau, RS <br> GPON","tecnologia":"GPON"},{"cidade":"Vacaria","longitude":"-50.941791","latitude":"-28.507868","color":"green","uf":"RS","name":"Vacaria, RS <br> GPON","tecnologia":"GPON"},{"cidade":"Içara","longitude":"-49.308654","latitude":"-28.713206","color":"green","uf":"SC","name":"Içara, SC <br> GPON","tecnologia":"GPON"},{"cidade":"Agudos","longitude":"-48.98632","latitude":"-22.469433","color":"green","uf":"SP","name":"Agudos, SP <br> GPON","tecnologia":"GPON"},{"cidade":"Casa Branca","longitude":"-47.085245","latitude":"-21.77081","color":"green","uf":"SP","name":"Casa Branca, SP <br> GPON","tecnologia":"GPON"},{"cidade":"Ibaté","longitude":"-47.988211","latitude":"-21.958358","color":"green","uf":"SP","name":"Ibaté, SP <br> GPON","tecnologia":"GPON"},{"cidade":"Jaguariúna","longitude":"-46.985062","latitude":"-22.70374","color":"green","uf":"SP","name":"Jaguariúna, SP <br> GPON","tecnologia":"GPON"},{"cidade":"Piedade","longitude":"-47.425572","latitude":"-23.713941","color":"green","uf":"SP","name":"Piedade, SP <br> GPON","tecnologia":"GPON"},{"cidade":"Santa Cruz das Palmeiras","longitude":"-47.248023","latitude":"-21.823475","color":"green","uf":"SP","name":"Santa Cruz das Palmeiras, SP <br> GPON","tecnologia":"GPON"},{"cidade":"Tambaú","longitude":"-47.270344","latitude":"-21.70292","color":"green","uf":"SP","name":"Tambaú, SP <br> GPON","tecnologia":"GPON"},{"cidade":"Araguaína","longitude":"-48.204402","latitude":"-7.192375","color":"green","uf":"TO","name":"Araguaína, TO <br> GPON","tecnologia":"GPON"},{"cidade":"Gurupi","longitude":"-49.068046","latitude":"-11.72794","color":"green","uf":"TO","name":"Gurupi, TO <br> GPON","tecnologia":"GPON"}]
