[{"cidade":"Arapiraca","color":"green","uf":"AL","name":"Arapiraca, AL <br> GPON","latitude":"-9.754866","tecnologia":"GPON","longitude":"-36.661471"},{"cidade":"Trindade","color":"green","uf":"GO","name":"Trindade, GO <br> GPON","latitude":"-16.651708","tecnologia":"GPON","longitude":"-49.492667"},{"cidade":"Araxá","color":"green","uf":"MG","name":"Araxá, MG <br> GPON","latitude":"-19.590176","tecnologia":"GPON","longitude":"-46.943804"},{"cidade":"Itajubá","color":"green","uf":"MG","name":"Itajubá, MG <br> GPON","latitude":"-22.422481","tecnologia":"GPON","longitude":"-45.459818"},{"cidade":"Paraíba Do Sul","color":"green","uf":"RJ","name":"Paraíba Do Sul, RJ <br> GPON","latitude":"-22.158462","tecnologia":"GPON","longitude":"-43.304004"},{"cidade":"Ji-Paraná","color":"green","uf":"RO","name":"Ji-Paraná, RO <br> GPON","latitude":"-10.877741","tecnologia":"GPON","longitude":"-61.932152"},{"cidade":"Camaquã","color":"green","uf":"RS","name":"Camaquã, RS <br> GPON","latitude":"-30.848897","tecnologia":"GPON","longitude":"-51.80431"},{"cidade":"Dois Irmãos","color":"green","uf":"RS","name":"Dois Irmãos, RS <br> GPON","latitude":"-29.58356","tecnologia":"GPON","longitude":"-51.089776"},{"cidade":"Marau","color":"green","uf":"RS","name":"Marau, RS <br> GPON","latitude":"-28.449754","tecnologia":"GPON","longitude":"-52.198625"},{"cidade":"Vacaria","color":"green","uf":"RS","name":"Vacaria, RS <br> GPON","latitude":"-28.507868","tecnologia":"GPON","longitude":"-50.941791"},{"cidade":"Içara","color":"green","uf":"SC","name":"Içara, SC <br> GPON","latitude":"-28.713206","tecnologia":"GPON","longitude":"-49.308654"},{"cidade":"Agudos","color":"green","uf":"SP","name":"Agudos, SP <br> GPON","latitude":"-22.469433","tecnologia":"GPON","longitude":"-48.98632"},{"cidade":"Casa Branca","color":"green","uf":"SP","name":"Casa Branca, SP <br> GPON","latitude":"-21.77081","tecnologia":"GPON","longitude":"-47.085245"},{"cidade":"Ibaté","color":"green","uf":"SP","name":"Ibaté, SP <br> GPON","latitude":"-21.958358","tecnologia":"GPON","longitude":"-47.988211"},{"cidade":"Jaguariúna","color":"green","uf":"SP","name":"Jaguariúna, SP <br> GPON","latitude":"-22.70374","tecnologia":"GPON","longitude":"-46.985062"},{"cidade":"Piedade","color":"green","uf":"SP","name":"Piedade, SP <br> GPON","latitude":"-23.713941","tecnologia":"GPON","longitude":"-47.425572"},{"cidade":"Santa Cruz das Palmeiras","color":"green","uf":"SP","name":"Santa Cruz das Palmeiras, SP <br> GPON","latitude":"-21.823475","tecnologia":"GPON","longitude":"-47.248023"},{"cidade":"Tambaú","color":"green","uf":"SP","name":"Tambaú, SP <br> GPON","latitude":"-21.70292","tecnologia":"GPON","longitude":"-47.270344"},{"cidade":"Araguaína","color":"green","uf":"TO","name":"Araguaína, TO <br> GPON","latitude":"-7.192375","tecnologia":"GPON","longitude":"-48.204402"},{"cidade":"Gurupi","color":"green","uf":"TO","name":"Gurupi, TO <br> GPON","latitude":"-11.72794","tecnologia":"GPON","longitude":"-49.068046"}]
