[{"longitude":"-36.661471","tecnologia":"GPON","uf":"AL","latitude":"-9.754866","name":"Arapiraca, AL <br> GPON","cidade":"Arapiraca","color":"green"},{"longitude":"-49.492667","tecnologia":"GPON","uf":"GO","latitude":"-16.651708","name":"Trindade, GO <br> GPON","cidade":"Trindade","color":"green"},{"longitude":"-46.943804","tecnologia":"GPON","uf":"MG","latitude":"-19.590176","name":"Araxá, MG <br> GPON","cidade":"Araxá","color":"green"},{"longitude":"-45.459818","tecnologia":"GPON","uf":"MG","latitude":"-22.422481","name":"Itajubá, MG <br> GPON","cidade":"Itajubá","color":"green"},{"longitude":"-43.304004","tecnologia":"GPON","uf":"RJ","latitude":"-22.158462","name":"Paraíba Do Sul, RJ <br> GPON","cidade":"Paraíba Do Sul","color":"green"},{"longitude":"-61.932152","tecnologia":"GPON","uf":"RO","latitude":"-10.877741","name":"Ji-Paraná, RO <br> GPON","cidade":"Ji-Paraná","color":"green"},{"longitude":"-51.80431","tecnologia":"GPON","uf":"RS","latitude":"-30.848897","name":"Camaquã, RS <br> GPON","cidade":"Camaquã","color":"green"},{"longitude":"-51.089776","tecnologia":"GPON","uf":"RS","latitude":"-29.58356","name":"Dois Irmãos, RS <br> GPON","cidade":"Dois Irmãos","color":"green"},{"longitude":"-52.198625","tecnologia":"GPON","uf":"RS","latitude":"-28.449754","name":"Marau, RS <br> GPON","cidade":"Marau","color":"green"},{"longitude":"-50.941791","tecnologia":"GPON","uf":"RS","latitude":"-28.507868","name":"Vacaria, RS <br> GPON","cidade":"Vacaria","color":"green"},{"longitude":"-49.308654","tecnologia":"GPON","uf":"SC","latitude":"-28.713206","name":"Içara, SC <br> GPON","cidade":"Içara","color":"green"},{"longitude":"-48.98632","tecnologia":"GPON","uf":"SP","latitude":"-22.469433","name":"Agudos, SP <br> GPON","cidade":"Agudos","color":"green"},{"longitude":"-47.085245","tecnologia":"GPON","uf":"SP","latitude":"-21.77081","name":"Casa Branca, SP <br> GPON","cidade":"Casa Branca","color":"green"},{"longitude":"-47.988211","tecnologia":"GPON","uf":"SP","latitude":"-21.958358","name":"Ibaté, SP <br> GPON","cidade":"Ibaté","color":"green"},{"longitude":"-46.985062","tecnologia":"GPON","uf":"SP","latitude":"-22.70374","name":"Jaguariúna, SP <br> GPON","cidade":"Jaguariúna","color":"green"},{"longitude":"-47.425572","tecnologia":"GPON","uf":"SP","latitude":"-23.713941","name":"Piedade, SP <br> GPON","cidade":"Piedade","color":"green"},{"longitude":"-47.248023","tecnologia":"GPON","uf":"SP","latitude":"-21.823475","name":"Santa Cruz das Palmeiras, SP <br> GPON","cidade":"Santa Cruz das Palmeiras","color":"green"},{"longitude":"-47.270344","tecnologia":"GPON","uf":"SP","latitude":"-21.70292","name":"Tambaú, SP <br> GPON","cidade":"Tambaú","color":"green"},{"longitude":"-48.204402","tecnologia":"GPON","uf":"TO","latitude":"-7.192375","name":"Araguaína, TO <br> GPON","cidade":"Araguaína","color":"green"},{"longitude":"-49.068046","tecnologia":"GPON","uf":"TO","latitude":"-11.72794","name":"Gurupi, TO <br> GPON","cidade":"Gurupi","color":"green"}]
