[{"name":"Arapiraca, AL <br> GPON","tecnologia":"GPON","latitude":"-9.754866","uf":"AL","longitude":"-36.661471","cidade":"Arapiraca","color":"green"},{"name":"Trindade, GO <br> GPON","tecnologia":"GPON","latitude":"-16.651708","uf":"GO","longitude":"-49.492667","cidade":"Trindade","color":"green"},{"name":"Araxá, MG <br> GPON","tecnologia":"GPON","latitude":"-19.590176","uf":"MG","longitude":"-46.943804","cidade":"Araxá","color":"green"},{"name":"Itajubá, MG <br> GPON","tecnologia":"GPON","latitude":"-22.422481","uf":"MG","longitude":"-45.459818","cidade":"Itajubá","color":"green"},{"name":"Paraíba Do Sul, RJ <br> GPON","tecnologia":"GPON","latitude":"-22.158462","uf":"RJ","longitude":"-43.304004","cidade":"Paraíba Do Sul","color":"green"},{"name":"Ji-Paraná, RO <br> GPON","tecnologia":"GPON","latitude":"-10.877741","uf":"RO","longitude":"-61.932152","cidade":"Ji-Paraná","color":"green"},{"name":"Camaquã, RS <br> GPON","tecnologia":"GPON","latitude":"-30.848897","uf":"RS","longitude":"-51.80431","cidade":"Camaquã","color":"green"},{"name":"Dois Irmãos, RS <br> GPON","tecnologia":"GPON","latitude":"-29.58356","uf":"RS","longitude":"-51.089776","cidade":"Dois Irmãos","color":"green"},{"name":"Marau, RS <br> GPON","tecnologia":"GPON","latitude":"-28.449754","uf":"RS","longitude":"-52.198625","cidade":"Marau","color":"green"},{"name":"Vacaria, RS <br> GPON","tecnologia":"GPON","latitude":"-28.507868","uf":"RS","longitude":"-50.941791","cidade":"Vacaria","color":"green"},{"name":"Içara, SC <br> GPON","tecnologia":"GPON","latitude":"-28.713206","uf":"SC","longitude":"-49.308654","cidade":"Içara","color":"green"},{"name":"Agudos, SP <br> GPON","tecnologia":"GPON","latitude":"-22.469433","uf":"SP","longitude":"-48.98632","cidade":"Agudos","color":"green"},{"name":"Casa Branca, SP <br> GPON","tecnologia":"GPON","latitude":"-21.77081","uf":"SP","longitude":"-47.085245","cidade":"Casa Branca","color":"green"},{"name":"Ibaté, SP <br> GPON","tecnologia":"GPON","latitude":"-21.958358","uf":"SP","longitude":"-47.988211","cidade":"Ibaté","color":"green"},{"name":"Jaguariúna, SP <br> GPON","tecnologia":"GPON","latitude":"-22.70374","uf":"SP","longitude":"-46.985062","cidade":"Jaguariúna","color":"green"},{"name":"Piedade, SP <br> GPON","tecnologia":"GPON","latitude":"-23.713941","uf":"SP","longitude":"-47.425572","cidade":"Piedade","color":"green"},{"name":"Santa Cruz das Palmeiras, SP <br> GPON","tecnologia":"GPON","latitude":"-21.823475","uf":"SP","longitude":"-47.248023","cidade":"Santa Cruz das Palmeiras","color":"green"},{"name":"Tambaú, SP <br> GPON","tecnologia":"GPON","latitude":"-21.70292","uf":"SP","longitude":"-47.270344","cidade":"Tambaú","color":"green"},{"name":"Araguaína, TO <br> GPON","tecnologia":"GPON","latitude":"-7.192375","uf":"TO","longitude":"-48.204402","cidade":"Araguaína","color":"green"},{"name":"Gurupi, TO <br> GPON","tecnologia":"GPON","latitude":"-11.72794","uf":"TO","longitude":"-49.068046","cidade":"Gurupi","color":"green"}]
