[{"color":"green","name":"Arapiraca, AL <br> GPON","tecnologia":"GPON","longitude":"-36.661471","uf":"AL","cidade":"Arapiraca","latitude":"-9.754866"},{"color":"green","name":"Trindade, GO <br> GPON","tecnologia":"GPON","longitude":"-49.492667","uf":"GO","cidade":"Trindade","latitude":"-16.651708"},{"color":"green","name":"Araxá, MG <br> GPON","tecnologia":"GPON","longitude":"-46.943804","uf":"MG","cidade":"Araxá","latitude":"-19.590176"},{"color":"green","name":"Itajubá, MG <br> GPON","tecnologia":"GPON","longitude":"-45.459818","uf":"MG","cidade":"Itajubá","latitude":"-22.422481"},{"color":"green","name":"Paraíba Do Sul, RJ <br> GPON","tecnologia":"GPON","longitude":"-43.304004","uf":"RJ","cidade":"Paraíba Do Sul","latitude":"-22.158462"},{"color":"green","name":"Ji-Paraná, RO <br> GPON","tecnologia":"GPON","longitude":"-61.932152","uf":"RO","cidade":"Ji-Paraná","latitude":"-10.877741"},{"color":"green","name":"Camaquã, RS <br> GPON","tecnologia":"GPON","longitude":"-51.80431","uf":"RS","cidade":"Camaquã","latitude":"-30.848897"},{"color":"green","name":"Dois Irmãos, RS <br> GPON","tecnologia":"GPON","longitude":"-51.089776","uf":"RS","cidade":"Dois Irmãos","latitude":"-29.58356"},{"color":"green","name":"Marau, RS <br> GPON","tecnologia":"GPON","longitude":"-52.198625","uf":"RS","cidade":"Marau","latitude":"-28.449754"},{"color":"green","name":"Vacaria, RS <br> GPON","tecnologia":"GPON","longitude":"-50.941791","uf":"RS","cidade":"Vacaria","latitude":"-28.507868"},{"color":"green","name":"Içara, SC <br> GPON","tecnologia":"GPON","longitude":"-49.308654","uf":"SC","cidade":"Içara","latitude":"-28.713206"},{"color":"green","name":"Agudos, SP <br> GPON","tecnologia":"GPON","longitude":"-48.98632","uf":"SP","cidade":"Agudos","latitude":"-22.469433"},{"color":"green","name":"Casa Branca, SP <br> GPON","tecnologia":"GPON","longitude":"-47.085245","uf":"SP","cidade":"Casa Branca","latitude":"-21.77081"},{"color":"green","name":"Ibaté, SP <br> GPON","tecnologia":"GPON","longitude":"-47.988211","uf":"SP","cidade":"Ibaté","latitude":"-21.958358"},{"color":"green","name":"Jaguariúna, SP <br> GPON","tecnologia":"GPON","longitude":"-46.985062","uf":"SP","cidade":"Jaguariúna","latitude":"-22.70374"},{"color":"green","name":"Piedade, SP <br> GPON","tecnologia":"GPON","longitude":"-47.425572","uf":"SP","cidade":"Piedade","latitude":"-23.713941"},{"color":"green","name":"Santa Cruz das Palmeiras, SP <br> GPON","tecnologia":"GPON","longitude":"-47.248023","uf":"SP","cidade":"Santa Cruz das Palmeiras","latitude":"-21.823475"},{"color":"green","name":"Tambaú, SP <br> GPON","tecnologia":"GPON","longitude":"-47.270344","uf":"SP","cidade":"Tambaú","latitude":"-21.70292"},{"color":"green","name":"Araguaína, TO <br> GPON","tecnologia":"GPON","longitude":"-48.204402","uf":"TO","cidade":"Araguaína","latitude":"-7.192375"},{"color":"green","name":"Gurupi, TO <br> GPON","tecnologia":"GPON","longitude":"-49.068046","uf":"TO","cidade":"Gurupi","latitude":"-11.72794"}]
