[{"tecnologia":"GPON","name":"Arapiraca, AL <br> GPON","uf":"AL","color":"green","longitude":"-36.661471","cidade":"Arapiraca","latitude":"-9.754866"},{"tecnologia":"GPON","name":"Trindade, GO <br> GPON","uf":"GO","color":"green","longitude":"-49.492667","cidade":"Trindade","latitude":"-16.651708"},{"tecnologia":"GPON","name":"Araxá, MG <br> GPON","uf":"MG","color":"green","longitude":"-46.943804","cidade":"Araxá","latitude":"-19.590176"},{"tecnologia":"GPON","name":"Itajubá, MG <br> GPON","uf":"MG","color":"green","longitude":"-45.459818","cidade":"Itajubá","latitude":"-22.422481"},{"tecnologia":"GPON","name":"Paraíba Do Sul, RJ <br> GPON","uf":"RJ","color":"green","longitude":"-43.304004","cidade":"Paraíba Do Sul","latitude":"-22.158462"},{"tecnologia":"GPON","name":"Ji-Paraná, RO <br> GPON","uf":"RO","color":"green","longitude":"-61.932152","cidade":"Ji-Paraná","latitude":"-10.877741"},{"tecnologia":"GPON","name":"Camaquã, RS <br> GPON","uf":"RS","color":"green","longitude":"-51.80431","cidade":"Camaquã","latitude":"-30.848897"},{"tecnologia":"GPON","name":"Dois Irmãos, RS <br> GPON","uf":"RS","color":"green","longitude":"-51.089776","cidade":"Dois Irmãos","latitude":"-29.58356"},{"tecnologia":"GPON","name":"Marau, RS <br> GPON","uf":"RS","color":"green","longitude":"-52.198625","cidade":"Marau","latitude":"-28.449754"},{"tecnologia":"GPON","name":"Vacaria, RS <br> GPON","uf":"RS","color":"green","longitude":"-50.941791","cidade":"Vacaria","latitude":"-28.507868"},{"tecnologia":"GPON","name":"Içara, SC <br> GPON","uf":"SC","color":"green","longitude":"-49.308654","cidade":"Içara","latitude":"-28.713206"},{"tecnologia":"GPON","name":"Agudos, SP <br> GPON","uf":"SP","color":"green","longitude":"-48.98632","cidade":"Agudos","latitude":"-22.469433"},{"tecnologia":"GPON","name":"Casa Branca, SP <br> GPON","uf":"SP","color":"green","longitude":"-47.085245","cidade":"Casa Branca","latitude":"-21.77081"},{"tecnologia":"GPON","name":"Ibaté, SP <br> GPON","uf":"SP","color":"green","longitude":"-47.988211","cidade":"Ibaté","latitude":"-21.958358"},{"tecnologia":"GPON","name":"Jaguariúna, SP <br> GPON","uf":"SP","color":"green","longitude":"-46.985062","cidade":"Jaguariúna","latitude":"-22.70374"},{"tecnologia":"GPON","name":"Piedade, SP <br> GPON","uf":"SP","color":"green","longitude":"-47.425572","cidade":"Piedade","latitude":"-23.713941"},{"tecnologia":"GPON","name":"Santa Cruz das Palmeiras, SP <br> GPON","uf":"SP","color":"green","longitude":"-47.248023","cidade":"Santa Cruz das Palmeiras","latitude":"-21.823475"},{"tecnologia":"GPON","name":"Tambaú, SP <br> GPON","uf":"SP","color":"green","longitude":"-47.270344","cidade":"Tambaú","latitude":"-21.70292"},{"tecnologia":"GPON","name":"Araguaína, TO <br> GPON","uf":"TO","color":"green","longitude":"-48.204402","cidade":"Araguaína","latitude":"-7.192375"},{"tecnologia":"GPON","name":"Gurupi, TO <br> GPON","uf":"TO","color":"green","longitude":"-49.068046","cidade":"Gurupi","latitude":"-11.72794"},{"tecnologia":"GPON","name":"Santana, AP <br> GPON","uf":"AP","color":"green","longitude":"-51.172924","cidade":"Santana","latitude":"-0.045434"},{"tecnologia":"GPON","name":"Alagoinhas, BA <br> GPON","uf":"BA","color":"green","longitude":"-38.420772","cidade":"Alagoinhas","latitude":"-12.133526"},{"tecnologia":"GPON","name":"Barreiras, BA <br> GPON","uf":"BA","color":"green","longitude":"-44.996838","cidade":"Barreiras","latitude":"-12.143864"},{"tecnologia":"GPON","name":"Feira de Santana, BA <br> GPON","uf":"BA","color":"green","longitude":"-38.966293","cidade":"Feira de Santana","latitude":"-12.266429"},{"tecnologia":"GPON","name":"Itabuna, BA <br> GPON","uf":"BA","color":"green","longitude":"-39.278056","cidade":"Itabuna","latitude":"-14.787573"},{"tecnologia":"GPON","name":"Juazeiro, BA <br> GPON","uf":"BA","color":"green","longitude":"-40.503251","cidade":"Juazeiro","latitude":"-9.416217"},{"tecnologia":"GPON","name":"Porto Seguro, BA <br> GPON","uf":"BA","color":"green","longitude":"-39.064251","cidade":"Porto Seguro","latitude":"-16.443473"},{"tecnologia":"GPON","name":"Teixeira de Freitas, BA <br> GPON","uf":"BA","color":"green","longitude":"-39.739962","cidade":"Teixeira de Freitas","latitude":"-17.539915"},{"tecnologia":"GPON","name":"Aquiraz, CE <br> GPON","uf":"CE","color":"green","longitude":"-38.389563","cidade":"Aquiraz","latitude":"-3.899293"},{"tecnologia":"GPON","name":"Juazeiro do Norte, CE <br> GPON","uf":"CE","color":"green","longitude":"-39.307593","cidade":"Juazeiro do Norte","latitude":"-7.196207"},{"tecnologia":"GPON","name":"Sobral, CE <br> GPON","uf":"CE","color":"green","longitude":"-40.34821","cidade":"Sobral","latitude":"-3.689133"},{"tecnologia":"GPON","name":"Aracruz, ES <br> GPON","uf":"ES","color":"green","longitude":"-40.276441","cidade":"Aracruz","latitude":"-19.820045"},{"tecnologia":"GPON","name":"Colatina, ES <br> GPON","uf":"ES","color":"green","longitude":"-40.626898","cidade":"Colatina","latitude":"-19.549316"},{"tecnologia":"GPON","name":"Caldas Novas, GO <br> GPON","uf":"GO","color":"green","longitude":"-48.624579","cidade":"Caldas Novas","latitude":"-17.74406"},{"tecnologia":"GPON","name":"Formosa, GO <br> GPON","uf":"GO","color":"green","longitude":"-47.336999","cidade":"Formosa","latitude":"-15.539991"},{"tecnologia":"GPON","name":"Itumbiara, GO <br> GPON","uf":"GO","color":"green","longitude":"-49.215845","cidade":"Itumbiara","latitude":"-18.409267"},{"tecnologia":"GPON","name":"Rio Verde, GO <br> GPON","uf":"GO","color":"green","longitude":"-50.919195","cidade":"Rio Verde","latitude":"-17.792266"},{"tecnologia":"GPON","name":"Senador Canedo, GO <br> GPON","uf":"GO","color":"green","longitude":"-49.091398","cidade":"Senador Canedo","latitude":"-16.708401"},{"tecnologia":"GPON","name":"Caxias, MA <br> GPON","uf":"MA","color":"green","longitude":"-43.361749","cidade":"Caxias","latitude":"-4.865053"},{"tecnologia":"GPON","name":"Imperatriz, MA <br> GPON","uf":"MA","color":"green","longitude":"-47.477726","cidade":"Imperatriz","latitude":"-5.518471"},{"tecnologia":"GPON","name":"Timon, MA <br> GPON","uf":"MA","color":"green","longitude":"-42.83292","cidade":"Timon","latitude":"-5.097692"},{"tecnologia":"GPON","name":"Araguari, MG <br> GPON","uf":"MG","color":"green","longitude":"-48.193392","cidade":"Araguari","latitude":"-18.645575"},{"tecnologia":"GPON","name":"Barbacena, MG <br> GPON","uf":"MG","color":"green","longitude":"-43.770266","cidade":"Barbacena","latitude":"-21.221446"},{"tecnologia":"GPON","name":"Cataguases, MG <br> GPON","uf":"MG","color":"green","longitude":"-42.689647","cidade":"Cataguases","latitude":"-21.39239"},{"tecnologia":"GPON","name":"Conselheiro Lafaiete, MG <br> GPON","uf":"MG","color":"green","longitude":"-43.784609","cidade":"Conselheiro Lafaiete","latitude":"-20.663445"},{"tecnologia":"GPON","name":"Coronel Fabriciano, MG <br> GPON","uf":"MG","color":"green","longitude":"-42.627585","cidade":"Coronel Fabriciano","latitude":"-19.517879"},{"tecnologia":"GPON","name":"Itabira, MG <br> GPON","uf":"MG","color":"green","longitude":"-43.23123","cidade":"Itabira","latitude":"-19.623936"},{"tecnologia":"GPON","name":"Ituiutaba, MG <br> GPON","uf":"MG","color":"green","longitude":"-49.463945","cidade":"Ituiutaba","latitude":"-18.977191"},{"tecnologia":"GPON","name":"Lagoa Santa, MG <br> GPON","uf":"MG","color":"green","longitude":"-43.893216","cidade":"Lagoa Santa","latitude":"-19.63967"},{"tecnologia":"GPON","name":"Lavras, MG <br> GPON","uf":"MG","color":"green","longitude":"-45.000949","cidade":"Lavras","latitude":"-21.248002"},{"tecnologia":"GPON","name":"Montes Claros, MG <br> GPON","uf":"MG","color":"green","longitude":"-43.857809","cidade":"Montes Claros","latitude":"-16.728177"},{"tecnologia":"GPON","name":"Passos, MG <br> GPON","uf":"MG","color":"green","longitude":"-46.609008","cidade":"Passos","latitude":"-20.719271"},{"tecnologia":"GPON","name":"Patos de Minas, MG <br> GPON","uf":"MG","color":"green","longitude":"-46.501268","cidade":"Patos de Minas","latitude":"-18.569938"},{"tecnologia":"GPON","name":"Pouso Alegre, MG <br> GPON","uf":"MG","color":"green","longitude":"-45.938935","cidade":"Pouso Alegre","latitude":"-22.22659"},{"tecnologia":"GPON","name":"Santa Luzia, MG <br> GPON","uf":"MG","color":"green","longitude":"-43.849658","cidade":"Santa Luzia","latitude":"-19.754824"},{"tecnologia":"GPON","name":"Vespasiano, MG <br> GPON","uf":"MG","color":"green","longitude":"-43.9239","cidade":"Vespasiano","latitude":"-19.688326"},{"tecnologia":"GPON","name":"Lucas do Rio Verde, MT <br> GPON","uf":"MT","color":"green","longitude":"-55.904202","cidade":"Lucas do Rio Verde","latitude":"-13.058796"},{"tecnologia":"GPON","name":"Nova Mutum, MT <br> GPON","uf":"MT","color":"green","longitude":"-56.074316","cidade":"Nova Mutum","latitude":"-13.837389"},{"tecnologia":"GPON","name":"Sinop, MT <br> GPON","uf":"MT","color":"green","longitude":"-55.509062","cidade":"Sinop","latitude":"-11.86043"},{"tecnologia":"GPON","name":"Sorriso, MT <br> GPON","uf":"MT","color":"green","longitude":"-55.721051","cidade":"Sorriso","latitude":"-12.542527"},{"tecnologia":"GPON","name":"Castanhal, PA <br> GPON","uf":"PA","color":"green","longitude":"-47.916742","cidade":"Castanhal","latitude":"-1.297971"},{"tecnologia":"GPON","name":"Paragominas, PA <br> GPON","uf":"PA","color":"green","longitude":"-47.352692","cidade":"Paragominas","latitude":"-3.002116"},{"tecnologia":"GPON","name":"Parauapebas, PA <br> GPON","uf":"PA","color":"green","longitude":"-49.903733","cidade":"Parauapebas","latitude":"-6.067812"},{"tecnologia":"GPON","name":"Petrolina, PE <br> GPON","uf":"PE","color":"green","longitude":"-40.502731","cidade":"Petrolina","latitude":"-9.388662"},{"tecnologia":"GPON","name":"Apucarana, PR <br> GPON","uf":"PR","color":"green","longitude":"-51.463486","cidade":"Apucarana","latitude":"-23.549961"},{"tecnologia":"GPON","name":"Cabo Frio, RJ <br> GPON","uf":"RJ","color":"green","longitude":"-42.028595","cidade":"Cabo Frio","latitude":"-22.88943"},{"tecnologia":"GPON","name":"Miguel Pereira, RJ <br> GPON","uf":"RJ","color":"green","longitude":"-43.480275","cidade":"Miguel Pereira","latitude":"-22.457242"},{"tecnologia":"GPON","name":"Nova Friburgo, RJ <br> GPON","uf":"RJ","color":"green","longitude":"-42.537692","cidade":"Nova Friburgo","latitude":"-22.293224"},{"tecnologia":"GPON","name":"Vassouras, RJ <br> GPON","uf":"RJ","color":"green","longitude":"-43.668555","cidade":"Vassouras","latitude":"-22.405889"},{"tecnologia":"GPON","name":"Ariquemes, RO <br> GPON","uf":"RO","color":"green","longitude":"-63.032516","cidade":"Ariquemes","latitude":"-9.905711"},{"tecnologia":"GPON","name":"Cacoal, RO <br> GPON","uf":"RO","color":"green","longitude":"-61.456167","cidade":"Cacoal","latitude":"-11.434271"},{"tecnologia":"GPON","name":"Vilhena, RO <br> GPON","uf":"RO","color":"green","longitude":"-60.148847","cidade":"Vilhena","latitude":"-12.750183"},{"tecnologia":"GPON","name":"Alegrete, RS <br> GPON","uf":"RS","color":"green","longitude":"-55.794862","cidade":"Alegrete","latitude":"-29.790166"},{"tecnologia":"GPON","name":"Arroio do Meio, RS <br> GPON","uf":"RS","color":"green","longitude":"-51.955735","cidade":"Arroio do Meio","latitude":"-29.401353"},{"tecnologia":"GPON","name":"Cachoeira do Sul, RS <br> GPON","uf":"RS","color":"green","longitude":"-52.892756","cidade":"Cachoeira do Sul","latitude":"-30.032988"},{"tecnologia":"GPON","name":"Canela, RS <br> GPON","uf":"RS","color":"green","longitude":"-50.811921","cidade":"Canela","latitude":"-29.355993"},{"tecnologia":"GPON","name":"Carazinho, RS <br> GPON","uf":"RS","color":"green","longitude":"-52.79326","cidade":"Carazinho","latitude":"-28.295844"},{"tecnologia":"GPON","name":"Carlos Barbosa, RS <br> GPON","uf":"RS","color":"green","longitude":"-51.502847","cidade":"Carlos Barbosa","latitude":"-29.296949"},{"tecnologia":"GPON","name":"Charqueadas, RS <br> GPON","uf":"RS","color":"green","longitude":"-51.628872","cidade":"Charqueadas","latitude":"-29.962478"},{"tecnologia":"GPON","name":"Eldorado do Sul, RS <br> GPON","uf":"RS","color":"green","longitude":"-51.618702","cidade":"Eldorado do Sul","latitude":"-30.084676"},{"tecnologia":"GPON","name":"Encantado, RS <br> GPON","uf":"RS","color":"green","longitude":"-51.870282","cidade":"Encantado","latitude":"-29.235141"},{"tecnologia":"GPON","name":"Estrela, RS <br> GPON","uf":"RS","color":"green","longitude":"-51.949508","cidade":"Estrela","latitude":"-29.500207"},{"tecnologia":"GPON","name":"Frederico Westphalen, RS <br> GPON","uf":"RS","color":"green","longitude":"-53.395824","cidade":"Frederico Westphalen","latitude":"-27.358644"},{"tecnologia":"GPON","name":"Garibaldi, RS <br> GPON","uf":"RS","color":"green","longitude":"-51.535179","cidade":"Garibaldi","latitude":"-29.258979"},{"tecnologia":"GPON","name":"Gramado, RS <br> GPON","uf":"RS","color":"green","longitude":"-50.876164","cidade":"Gramado","latitude":"-29.373351"},{"tecnologia":"GPON","name":"Igrejinha, RS <br> GPON","uf":"RS","color":"green","longitude":"-50.791894","cidade":"Igrejinha","latitude":"-29.569318"},{"tecnologia":"GPON","name":"Itaqui, RS <br> GPON","uf":"RS","color":"green","longitude":"-56.551478","cidade":"Itaqui","latitude":"-29.131051"},{"tecnologia":"GPON","name":"Ivoti, RS <br> GPON","uf":"RS","color":"green","longitude":"-51.153326","cidade":"Ivoti","latitude":"-29.599463"},{"tecnologia":"GPON","name":"Montenegro, RS <br> GPON","uf":"RS","color":"green","longitude":"-51.467903","cidade":"Montenegro","latitude":"-29.682414"},{"tecnologia":"GPON","name":"Panambi, RS <br> GPON","uf":"RS","color":"green","longitude":"-53.502261","cidade":"Panambi","latitude":"-28.283328"},{"tecnologia":"GPON","name":"Rio Pardo, RS <br> GPON","uf":"RS","color":"green","longitude":"-52.37113","cidade":"Rio Pardo","latitude":"-29.98803"},{"tecnologia":"GPON","name":"Santa Rosa, RS <br> GPON","uf":"RS","color":"green","longitude":"-54.479629","cidade":"Santa Rosa","latitude":"-27.8702"},{"tecnologia":"GPON","name":"Santana do Livramento, RS <br> GPON","uf":"RS","color":"green","longitude":"-55.531467","cidade":"Santana do Livramento","latitude":"-30.88772"},{"tecnologia":"GPON","name":"Taquara, RS <br> GPON","uf":"RS","color":"green","longitude":"-50.775278","cidade":"Taquara","latitude":"-29.650471"},{"tecnologia":"GPON","name":"Torres, RS <br> GPON","uf":"RS","color":"green","longitude":"-49.733289","cidade":"Torres","latitude":"-29.333438"},{"tecnologia":"GPON","name":"Vera Cruz, RS <br> GPON","uf":"RS","color":"green","longitude":"-52.515176","cidade":"Vera Cruz","latitude":"-29.718435"},{"tecnologia":"GPON","name":"Fraiburgo, SC <br> GPON","uf":"SC","color":"green","longitude":"-50.919978","cidade":"Fraiburgo","latitude":"-27.023288"},{"tecnologia":"GPON","name":"Gaspar, SC <br> GPON","uf":"SC","color":"green","longitude":"-48.953428","cidade":"Gaspar","latitude":"-26.933597"},{"tecnologia":"GPON","name":"Guaramirim, SC <br> GPON","uf":"SC","color":"green","longitude":"-49.002628","cidade":"Guaramirim","latitude":"-26.468753"},{"tecnologia":"GPON","name":"Indaial, SC <br> GPON","uf":"SC","color":"green","longitude":"-49.235417","cidade":"Indaial","latitude":"-26.899247"},{"tecnologia":"GPON","name":"Lages, SC <br> GPON","uf":"SC","color":"green","longitude":"-50.325862","cidade":"Lages","latitude":"-27.814966"},{"tecnologia":"GPON","name":"Mafra, SC <br> GPON","uf":"SC","color":"green","longitude":"-49.808624","cidade":"Mafra","latitude":"-26.115935"},{"tecnologia":"GPON","name":"Rio do Sul, SC <br> GPON","uf":"SC","color":"green","longitude":"-49.643016","cidade":"Rio do Sul","latitude":"-27.215596"},{"tecnologia":"GPON","name":"Rio Negrinho, SC <br> GPON","uf":"SC","color":"green","longitude":"-49.517746","cidade":"Rio Negrinho","latitude":"-26.259075"},{"tecnologia":"GPON","name":"Videira, SC <br> GPON","uf":"SC","color":"green","longitude":"-51.154274","cidade":"Videira","latitude":"-27.008624"},{"tecnologia":"GPON","name":"Xaxim, SC <br> GPON","uf":"SC","color":"green","longitude":"-52.537446","cidade":"Xaxim","latitude":"-26.959643"},{"tecnologia":"GPON","name":"Adamantina, SP <br> GPON","uf":"SP","color":"green","longitude":"-51.073695","cidade":"Adamantina","latitude":"-21.682012"},{"tecnologia":"GPON","name":"Amparo, SP <br> GPON","uf":"SP","color":"green","longitude":"-46.772022","cidade":"Amparo","latitude":"-22.70879"},{"tecnologia":"GPON","name":"Andradina, SP <br> GPON","uf":"SP","color":"green","longitude":"-51.378568","cidade":"Andradina","latitude":"-20.894761"},{"tecnologia":"GPON","name":"Bady Bassitt, SP <br> GPON","uf":"SP","color":"green","longitude":"-49.4385","cidade":"Bady Bassitt","latitude":"-20.919689"},{"tecnologia":"GPON","name":"Barretos, SP <br> GPON","uf":"SP","color":"green","longitude":"-48.569832","cidade":"Barretos","latitude":"-20.553146"},{"tecnologia":"GPON","name":"Barrinha, SP <br> GPON","uf":"SP","color":"green","longitude":"-48.163614","cidade":"Barrinha","latitude":"-21.186374"},{"tecnologia":"GPON","name":"Batatais, SP <br> GPON","uf":"SP","color":"green","longitude":"-47.592149","cidade":"Batatais","latitude":"-20.892867"},{"tecnologia":"GPON","name":"Bebedouro, SP <br> GPON","uf":"SP","color":"green","longitude":"-48.479083","cidade":"Bebedouro","latitude":"-20.949077"},{"tecnologia":"GPON","name":"Birigui, SP <br> GPON","uf":"SP","color":"green","longitude":"-50.343162","cidade":"Birigui","latitude":"-21.291034"},{"tecnologia":"GPON","name":"Boituva, SP <br> GPON","uf":"SP","color":"green","longitude":"-47.678574","cidade":"Boituva","latitude":"-23.285531"},{"tecnologia":"GPON","name":"Caieiras, SP <br> GPON","uf":"SP","color":"green","longitude":"-46.73974","cidade":"Caieiras","latitude":"-23.360729"},{"tecnologia":"GPON","name":"Cajamar, SP <br> GPON","uf":"SP","color":"green","longitude":"-46.878146","cidade":"Cajamar","latitude":"-23.355014"},{"tecnologia":"GPON","name":"Campo Limpo Paulista, SP <br> GPON","uf":"SP","color":"green","longitude":"-46.788919","cidade":"Campo Limpo Paulista","latitude":"-23.207791"},{"tecnologia":"GPON","name":"Caraguatatuba, SP <br> GPON","uf":"SP","color":"green","longitude":"-45.412533","cidade":"Caraguatatuba","latitude":"-23.612535"},{"tecnologia":"GPON","name":"Catanduva, SP <br> GPON","uf":"SP","color":"green","longitude":"-48.977015","cidade":"Catanduva","latitude":"-21.131381"},{"tecnologia":"GPON","name":"Cerquilho, SP <br> GPON","uf":"SP","color":"green","longitude":"-47.745862","cidade":"Cerquilho","latitude":"-23.166487"},{"tecnologia":"GPON","name":"Cravinhos, SP <br> GPON","uf":"SP","color":"green","longitude":"-47.732427","cidade":"Cravinhos","latitude":"-21.337959"},{"tecnologia":"GPON","name":"Descalvado, SP <br> GPON","uf":"SP","color":"green","longitude":"-47.618105","cidade":"Descalvado","latitude":"-21.900211"},{"tecnologia":"GPON","name":"Dracena, SP <br> GPON","uf":"SP","color":"green","longitude":"-51.535034","cidade":"Dracena","latitude":"-21.484311"},{"tecnologia":"GPON","name":"Guararapes, SP <br> GPON","uf":"SP","color":"green","longitude":"-50.645338","cidade":"Guararapes","latitude":"-21.254431"},{"tecnologia":"GPON","name":"Itapeva, SP <br> GPON","uf":"SP","color":"green","longitude":"-48.876433","cidade":"Itapeva","latitude":"-23.978823"},{"tecnologia":"GPON","name":"Itapira, SP <br> GPON","uf":"SP","color":"green","longitude":"-46.822434","cidade":"Itapira","latitude":"-22.435731"},{"tecnologia":"GPON","name":"Itaquaquecetuba, SP <br> GPON","uf":"SP","color":"green","longitude":"-46.345724","cidade":"Itaquaquecetuba","latitude":"-23.483481"},{"tecnologia":"GPON","name":"Itatiba, SP <br> GPON","uf":"SP","color":"green","longitude":"-46.846353","cidade":"Itatiba","latitude":"-23.003497"},{"tecnologia":"GPON","name":"Itupeva, SP <br> GPON","uf":"SP","color":"green","longitude":"-47.059262","cidade":"Itupeva","latitude":"-23.152635"},{"tecnologia":"GPON","name":"Ituverava, SP <br> GPON","uf":"SP","color":"green","longitude":"-47.790207","cidade":"Ituverava","latitude":"-20.335465"},{"tecnologia":"GPON","name":"Jaboticabal, SP <br> GPON","uf":"SP","color":"green","longitude":"-48.325223","cidade":"Jaboticabal","latitude":"-21.252037"},{"tecnologia":"GPON","name":"Jales, SP <br> GPON","uf":"SP","color":"green","longitude":"-50.549442","cidade":"Jales","latitude":"-20.267227"},{"tecnologia":"GPON","name":"Jarinu, SP <br> GPON","uf":"SP","color":"green","longitude":"-46.728015","cidade":"Jarinu","latitude":"-23.103855"},{"tecnologia":"GPON","name":"Laranjal Paulista, SP <br> GPON","uf":"SP","color":"green","longitude":"-47.837549","cidade":"Laranjal Paulista","latitude":"-23.050564"},{"tecnologia":"GPON","name":"Leme, SP <br> GPON","uf":"SP","color":"green","longitude":"-47.384109","cidade":"Leme","latitude":"-22.180857"},{"tecnologia":"GPON","name":"Lins, SP <br> GPON","uf":"SP","color":"green","longitude":"-49.752555","cidade":"Lins","latitude":"-21.67182"},{"tecnologia":"GPON","name":"Louveira, SP <br> GPON","uf":"SP","color":"green","longitude":"-46.948369","cidade":"Louveira","latitude":"-23.085572"},{"tecnologia":"GPON","name":"Mairinque, SP <br> GPON","uf":"SP","color":"green","longitude":"-47.184995","cidade":"Mairinque","latitude":"-23.539822"},{"tecnologia":"GPON","name":"Mirassol, SP <br> GPON","uf":"SP","color":"green","longitude":"-49.52061","cidade":"Mirassol","latitude":"-20.816874"},{"tecnologia":"GPON","name":"Mococa, SP <br> GPON","uf":"SP","color":"green","longitude":"-47.002405","cidade":"Mococa","latitude":"-21.464731"},{"tecnologia":"GPON","name":"Monte Alto, SP <br> GPON","uf":"SP","color":"green","longitude":"-48.497066","cidade":"Monte Alto","latitude":"-21.265545"},{"tecnologia":"GPON","name":"Morungaba, SP <br> GPON","uf":"SP","color":"green","longitude":"-46.789601","cidade":"Morungaba","latitude":"-22.881071"},{"tecnologia":"GPON","name":"Ourinhos, SP <br> GPON","uf":"SP","color":"green","longitude":"-49.869702","cidade":"Ourinhos","latitude":"-22.979695"},{"tecnologia":"GPON","name":"Pedreira, SP <br> GPON","uf":"SP","color":"green","longitude":"-46.894846","cidade":"Pedreira","latitude":"-22.741347"},{"tecnologia":"GPON","name":"Piracaia, SP <br> GPON","uf":"SP","color":"green","longitude":"-46.359374","cidade":"Piracaia","latitude":"-23.052545"},{"tecnologia":"GPON","name":"Pirassununga, SP <br> GPON","uf":"SP","color":"green","longitude":"-47.425746","cidade":"Pirassununga","latitude":"-21.995982"},{"tecnologia":"GPON","name":"Pontal, SP <br> GPON","uf":"SP","color":"green","longitude":"-48.042261","cidade":"Pontal","latitude":"-21.021565"},{"tecnologia":"GPON","name":"Porto Ferreira, SP <br> GPON","uf":"SP","color":"green","longitude":"-47.487034","cidade":"Porto Ferreira","latitude":"-21.849814"},{"tecnologia":"GPON","name":"Potirendaba, SP <br> GPON","uf":"SP","color":"green","longitude":"-49.381509","cidade":"Potirendaba","latitude":"-21.042789"},{"tecnologia":"GPON","name":"Presidente Bernardes, SP <br> GPON","uf":"SP","color":"green","longitude":"-51.556507","cidade":"Presidente Bernardes","latitude":"-22.008198"},{"tecnologia":"GPON","name":"Registro, SP <br> GPON","uf":"SP","color":"green","longitude":"-47.844895","cidade":"Registro","latitude":"-24.497942"},{"tecnologia":"GPON","name":"Santa Cruz do Rio Pardo, SP <br> GPON","uf":"SP","color":"green","longitude":"-49.635444","cidade":"Santa Cruz do Rio Pardo","latitude":"-22.89875"},{"tecnologia":"GPON","name":"Santa Gertrudes, SP <br> GPON","uf":"SP","color":"green","longitude":"-47.52716","cidade":"Santa Gertrudes","latitude":"-22.457229"},{"tecnologia":"GPON","name":"Santa Isabel, SP <br> GPON","uf":"SP","color":"green","longitude":"-46.223668","cidade":"Santa Isabel","latitude":"-23.317194"},{"tecnologia":"GPON","name":"Santa Rosa de Viterbo, SP <br> GPON","uf":"SP","color":"green","longitude":"-47.362213","cidade":"Santa Rosa de Viterbo","latitude":"-21.477568"},{"tecnologia":"GPON","name":"Serra Negra, SP <br> GPON","uf":"SP","color":"green","longitude":"-46.703271","cidade":"Serra Negra","latitude":"-22.613941"},{"tecnologia":"GPON","name":"Serrana, SP <br> GPON","uf":"SP","color":"green","longitude":"-47.595239","cidade":"Serrana","latitude":"-21.204336"},{"tecnologia":"GPON","name":"Ubatuba, SP <br> GPON","uf":"SP","color":"green","longitude":"-45.083415","cidade":"Ubatuba","latitude":"-23.433162"},{"tecnologia":"GPON","name":"Votuporanga, SP <br> GPON","uf":"SP","color":"green","longitude":"-49.978112","cidade":"Votuporanga","latitude":"-20.423659"}]
