[{"latitude":"-9.754866","cidade":"Arapiraca","uf":"AL","color":"green","tecnologia":"GPON","name":"Arapiraca, AL <br> GPON","longitude":"-36.661471"},{"latitude":"-16.651708","cidade":"Trindade","uf":"GO","color":"green","tecnologia":"GPON","name":"Trindade, GO <br> GPON","longitude":"-49.492667"},{"latitude":"-19.590176","cidade":"Araxá","uf":"MG","color":"green","tecnologia":"GPON","name":"Araxá, MG <br> GPON","longitude":"-46.943804"},{"latitude":"-22.422481","cidade":"Itajubá","uf":"MG","color":"green","tecnologia":"GPON","name":"Itajubá, MG <br> GPON","longitude":"-45.459818"},{"latitude":"-22.158462","cidade":"Paraíba Do Sul","uf":"RJ","color":"green","tecnologia":"GPON","name":"Paraíba Do Sul, RJ <br> GPON","longitude":"-43.304004"},{"latitude":"-10.877741","cidade":"Ji-Paraná","uf":"RO","color":"green","tecnologia":"GPON","name":"Ji-Paraná, RO <br> GPON","longitude":"-61.932152"},{"latitude":"-30.848897","cidade":"Camaquã","uf":"RS","color":"green","tecnologia":"GPON","name":"Camaquã, RS <br> GPON","longitude":"-51.80431"},{"latitude":"-29.58356","cidade":"Dois Irmãos","uf":"RS","color":"green","tecnologia":"GPON","name":"Dois Irmãos, RS <br> GPON","longitude":"-51.089776"},{"latitude":"-28.449754","cidade":"Marau","uf":"RS","color":"green","tecnologia":"GPON","name":"Marau, RS <br> GPON","longitude":"-52.198625"},{"latitude":"-28.507868","cidade":"Vacaria","uf":"RS","color":"green","tecnologia":"GPON","name":"Vacaria, RS <br> GPON","longitude":"-50.941791"},{"latitude":"-28.713206","cidade":"Içara","uf":"SC","color":"green","tecnologia":"GPON","name":"Içara, SC <br> GPON","longitude":"-49.308654"},{"latitude":"-22.469433","cidade":"Agudos","uf":"SP","color":"green","tecnologia":"GPON","name":"Agudos, SP <br> GPON","longitude":"-48.98632"},{"latitude":"-21.77081","cidade":"Casa Branca","uf":"SP","color":"green","tecnologia":"GPON","name":"Casa Branca, SP <br> GPON","longitude":"-47.085245"},{"latitude":"-21.958358","cidade":"Ibaté","uf":"SP","color":"green","tecnologia":"GPON","name":"Ibaté, SP <br> GPON","longitude":"-47.988211"},{"latitude":"-22.70374","cidade":"Jaguariúna","uf":"SP","color":"green","tecnologia":"GPON","name":"Jaguariúna, SP <br> GPON","longitude":"-46.985062"},{"latitude":"-23.713941","cidade":"Piedade","uf":"SP","color":"green","tecnologia":"GPON","name":"Piedade, SP <br> GPON","longitude":"-47.425572"},{"latitude":"-21.823475","cidade":"Santa Cruz das Palmeiras","uf":"SP","color":"green","tecnologia":"GPON","name":"Santa Cruz das Palmeiras, SP <br> GPON","longitude":"-47.248023"},{"latitude":"-21.70292","cidade":"Tambaú","uf":"SP","color":"green","tecnologia":"GPON","name":"Tambaú, SP <br> GPON","longitude":"-47.270344"},{"latitude":"-7.192375","cidade":"Araguaína","uf":"TO","color":"green","tecnologia":"GPON","name":"Araguaína, TO <br> GPON","longitude":"-48.204402"},{"latitude":"-11.72794","cidade":"Gurupi","uf":"TO","color":"green","tecnologia":"GPON","name":"Gurupi, TO <br> GPON","longitude":"-49.068046"}]
