[{"uf":"AL","cidade":"Arapiraca","tecnologia":"GPON","name":"Arapiraca, AL <br> GPON","color":"green","longitude":"-36.661471","latitude":"-9.754866"},{"uf":"GO","cidade":"Trindade","tecnologia":"GPON","name":"Trindade, GO <br> GPON","color":"green","longitude":"-49.492667","latitude":"-16.651708"},{"uf":"MG","cidade":"Araxá","tecnologia":"GPON","name":"Araxá, MG <br> GPON","color":"green","longitude":"-46.943804","latitude":"-19.590176"},{"uf":"MG","cidade":"Itajubá","tecnologia":"GPON","name":"Itajubá, MG <br> GPON","color":"green","longitude":"-45.459818","latitude":"-22.422481"},{"uf":"RJ","cidade":"Paraíba Do Sul","tecnologia":"GPON","name":"Paraíba Do Sul, RJ <br> GPON","color":"green","longitude":"-43.304004","latitude":"-22.158462"},{"uf":"RO","cidade":"Ji-Paraná","tecnologia":"GPON","name":"Ji-Paraná, RO <br> GPON","color":"green","longitude":"-61.932152","latitude":"-10.877741"},{"uf":"RS","cidade":"Camaquã","tecnologia":"GPON","name":"Camaquã, RS <br> GPON","color":"green","longitude":"-51.80431","latitude":"-30.848897"},{"uf":"RS","cidade":"Dois Irmãos","tecnologia":"GPON","name":"Dois Irmãos, RS <br> GPON","color":"green","longitude":"-51.089776","latitude":"-29.58356"},{"uf":"RS","cidade":"Marau","tecnologia":"GPON","name":"Marau, RS <br> GPON","color":"green","longitude":"-52.198625","latitude":"-28.449754"},{"uf":"RS","cidade":"Vacaria","tecnologia":"GPON","name":"Vacaria, RS <br> GPON","color":"green","longitude":"-50.941791","latitude":"-28.507868"},{"uf":"SC","cidade":"Içara","tecnologia":"GPON","name":"Içara, SC <br> GPON","color":"green","longitude":"-49.308654","latitude":"-28.713206"},{"uf":"SP","cidade":"Agudos","tecnologia":"GPON","name":"Agudos, SP <br> GPON","color":"green","longitude":"-48.98632","latitude":"-22.469433"},{"uf":"SP","cidade":"Casa Branca","tecnologia":"GPON","name":"Casa Branca, SP <br> GPON","color":"green","longitude":"-47.085245","latitude":"-21.77081"},{"uf":"SP","cidade":"Ibaté","tecnologia":"GPON","name":"Ibaté, SP <br> GPON","color":"green","longitude":"-47.988211","latitude":"-21.958358"},{"uf":"SP","cidade":"Jaguariúna","tecnologia":"GPON","name":"Jaguariúna, SP <br> GPON","color":"green","longitude":"-46.985062","latitude":"-22.70374"},{"uf":"SP","cidade":"Piedade","tecnologia":"GPON","name":"Piedade, SP <br> GPON","color":"green","longitude":"-47.425572","latitude":"-23.713941"},{"uf":"SP","cidade":"Santa Cruz das Palmeiras","tecnologia":"GPON","name":"Santa Cruz das Palmeiras, SP <br> GPON","color":"green","longitude":"-47.248023","latitude":"-21.823475"},{"uf":"SP","cidade":"Tambaú","tecnologia":"GPON","name":"Tambaú, SP <br> GPON","color":"green","longitude":"-47.270344","latitude":"-21.70292"},{"uf":"TO","cidade":"Araguaína","tecnologia":"GPON","name":"Araguaína, TO <br> GPON","color":"green","longitude":"-48.204402","latitude":"-7.192375"},{"uf":"TO","cidade":"Gurupi","tecnologia":"GPON","name":"Gurupi, TO <br> GPON","color":"green","longitude":"-49.068046","latitude":"-11.72794"}]
