[{"color":"green","latitude":"-9.754866","longitude":"-36.661471","cidade":"Arapiraca","name":"Arapiraca, AL <br> GPON","uf":"AL","tecnologia":"GPON"},{"color":"green","latitude":"-16.651708","longitude":"-49.492667","cidade":"Trindade","name":"Trindade, GO <br> GPON","uf":"GO","tecnologia":"GPON"},{"color":"green","latitude":"-19.590176","longitude":"-46.943804","cidade":"Araxá","name":"Araxá, MG <br> GPON","uf":"MG","tecnologia":"GPON"},{"color":"green","latitude":"-22.422481","longitude":"-45.459818","cidade":"Itajubá","name":"Itajubá, MG <br> GPON","uf":"MG","tecnologia":"GPON"},{"color":"green","latitude":"-22.158462","longitude":"-43.304004","cidade":"Paraíba Do Sul","name":"Paraíba Do Sul, RJ <br> GPON","uf":"RJ","tecnologia":"GPON"},{"color":"green","latitude":"-10.877741","longitude":"-61.932152","cidade":"Ji-Paraná","name":"Ji-Paraná, RO <br> GPON","uf":"RO","tecnologia":"GPON"},{"color":"green","latitude":"-30.848897","longitude":"-51.80431","cidade":"Camaquã","name":"Camaquã, RS <br> GPON","uf":"RS","tecnologia":"GPON"},{"color":"green","latitude":"-29.58356","longitude":"-51.089776","cidade":"Dois Irmãos","name":"Dois Irmãos, RS <br> GPON","uf":"RS","tecnologia":"GPON"},{"color":"green","latitude":"-28.449754","longitude":"-52.198625","cidade":"Marau","name":"Marau, RS <br> GPON","uf":"RS","tecnologia":"GPON"},{"color":"green","latitude":"-28.507868","longitude":"-50.941791","cidade":"Vacaria","name":"Vacaria, RS <br> GPON","uf":"RS","tecnologia":"GPON"},{"color":"green","latitude":"-28.713206","longitude":"-49.308654","cidade":"Içara","name":"Içara, SC <br> GPON","uf":"SC","tecnologia":"GPON"},{"color":"green","latitude":"-22.469433","longitude":"-48.98632","cidade":"Agudos","name":"Agudos, SP <br> GPON","uf":"SP","tecnologia":"GPON"},{"color":"green","latitude":"-21.77081","longitude":"-47.085245","cidade":"Casa Branca","name":"Casa Branca, SP <br> GPON","uf":"SP","tecnologia":"GPON"},{"color":"green","latitude":"-21.958358","longitude":"-47.988211","cidade":"Ibaté","name":"Ibaté, SP <br> GPON","uf":"SP","tecnologia":"GPON"},{"color":"green","latitude":"-22.70374","longitude":"-46.985062","cidade":"Jaguariúna","name":"Jaguariúna, SP <br> GPON","uf":"SP","tecnologia":"GPON"},{"color":"green","latitude":"-23.713941","longitude":"-47.425572","cidade":"Piedade","name":"Piedade, SP <br> GPON","uf":"SP","tecnologia":"GPON"},{"color":"green","latitude":"-21.823475","longitude":"-47.248023","cidade":"Santa Cruz das Palmeiras","name":"Santa Cruz das Palmeiras, SP <br> GPON","uf":"SP","tecnologia":"GPON"},{"color":"green","latitude":"-21.70292","longitude":"-47.270344","cidade":"Tambaú","name":"Tambaú, SP <br> GPON","uf":"SP","tecnologia":"GPON"},{"color":"green","latitude":"-7.192375","longitude":"-48.204402","cidade":"Araguaína","name":"Araguaína, TO <br> GPON","uf":"TO","tecnologia":"GPON"},{"color":"green","latitude":"-11.72794","longitude":"-49.068046","cidade":"Gurupi","name":"Gurupi, TO <br> GPON","uf":"TO","tecnologia":"GPON"}]
