[{"longitude":"-36.792608","name":"Campo Grande, ERRO CADASTRO API AL <br> ERRO na consulta API","tecnologia":"ERRO na consulta API","uf":"ERRO CADASTRO API AL","cidade":"Campo Grande","color":"orange","latitude":"-9.955423"},{"longitude":"-39.013656","name":"Maraú, ERRO CADASTRO API BA <br> ERRO na consulta API","tecnologia":"ERRO na consulta API","uf":"ERRO CADASTRO API BA","cidade":"Maraú","color":"orange","latitude":"-14.103549"},{"longitude":"-39.328678","name":"Santa Luzia, ERRO CADASTRO API BA <br> ERRO na consulta API","tecnologia":"ERRO na consulta API","uf":"ERRO CADASTRO API BA","cidade":"Santa Luzia","color":"orange","latitude":"-15.434188"},{"longitude":"-44.05064","name":"Santana, ERRO CADASTRO API BA <br> ERRO na consulta API","tecnologia":"ERRO na consulta API","uf":"ERRO CADASTRO API BA","cidade":"Santana","color":"orange","latitude":"-12.979217"},{"longitude":"-38.615295","name":"Vera Cruz, ERRO CADASTRO API BA <br> ERRO na consulta API","tecnologia":"ERRO na consulta API","uf":"ERRO CADASTRO API BA","cidade":"Vera Cruz","color":"orange","latitude":"-12.956845"},{"longitude":"-38.241178","name":"Cascavel, ERRO CADASTRO API CE <br> ERRO na consulta API","tecnologia":"ERRO na consulta API","uf":"ERRO CADASTRO API CE","cidade":"Cascavel","color":"orange","latitude":"-4.129666"},{"longitude":"-51.399333","name":"Lagoa Santa, ERRO CADASTRO API GO <br> ERRO na consulta API","tecnologia":"ERRO na consulta API","uf":"ERRO CADASTRO API GO","cidade":"Lagoa Santa","color":"orange","latitude":"-19.185113"},{"longitude":"-49.425931","name":"Santa Isabel, ERRO CADASTRO API GO <br> ERRO na consulta API","tecnologia":"ERRO na consulta API","uf":"ERRO CADASTRO API GO","cidade":"Santa Isabel","color":"orange","latitude":"-15.295849"},{"longitude":"-45.690026","name":"Santa Luzia, ERRO CADASTRO API MA <br> ERRO na consulta API","tecnologia":"ERRO na consulta API","uf":"ERRO CADASTRO API MA","cidade":"Santa Luzia","color":"orange","latitude":"-4.068726"},{"longitude":"-46.224053","name":"Itapeva, ERRO CADASTRO API MG <br> ERRO na consulta API","tecnologia":"ERRO na consulta API","uf":"ERRO CADASTRO API MG","cidade":"Itapeva","color":"orange","latitude":"-22.766488"},{"longitude":"-42.607877","name":"Mesquita, ERRO CADASTRO API MG <br> ERRO na consulta API","tecnologia":"ERRO na consulta API","uf":"ERRO CADASTRO API MG","cidade":"Mesquita","color":"orange","latitude":"-19.224022"},{"longitude":"-43.189532","name":"Presidente Bernardes, ERRO CADASTRO API MG <br> ERRO na consulta API","tecnologia":"ERRO na consulta API","uf":"ERRO CADASTRO API MG","cidade":"Presidente Bernardes","color":"orange","latitude":"-20.76557"},{"longitude":"-46.372772","name":"Toledo, ERRO CADASTRO API MG <br> ERRO na consulta API","tecnologia":"ERRO na consulta API","uf":"ERRO CADASTRO API MG","cidade":"Toledo","color":"orange","latitude":"-22.742133"},{"longitude":"-58.125892","name":"Rio Branco, ERRO CADASTRO API MT <br> ERRO na consulta API","tecnologia":"ERRO na consulta API","uf":"ERRO CADASTRO API MT","cidade":"Rio Branco","color":"orange","latitude":"-15.248331"},{"longitude":"-37.062838","name":"Amparo, ERRO CADASTRO API PB <br> ERRO na consulta API","tecnologia":"ERRO na consulta API","uf":"ERRO CADASTRO API PB","cidade":"Amparo","color":"orange","latitude":"-7.555022"},{"longitude":"-38.080259","name":"Aparecida, ERRO CADASTRO API PB <br> ERRO na consulta API","tecnologia":"ERRO na consulta API","uf":"ERRO CADASTRO API PB","cidade":"Aparecida","color":"orange","latitude":"-6.784657"},{"longitude":"-37.618548","name":"Paulista, ERRO CADASTRO API PB <br> ERRO na consulta API","tecnologia":"ERRO na consulta API","uf":"ERRO CADASTRO API PB","cidade":"Paulista","color":"orange","latitude":"-6.591381"},{"longitude":"-36.917792","name":"Santa Luzia, ERRO CADASTRO API PB <br> ERRO na consulta API","tecnologia":"ERRO na consulta API","uf":"ERRO CADASTRO API PB","cidade":"Santa Luzia","color":"orange","latitude":"-6.860922"},{"longitude":"-36.240182","name":"Cachoeirinha, ERRO CADASTRO API PE <br> ERRO na consulta API","tecnologia":"ERRO na consulta API","uf":"ERRO CADASTRO API PE","cidade":"Cachoeirinha","color":"orange","latitude":"-8.486685"},{"longitude":"-39.579547","name":"Parnamirim, ERRO CADASTRO API PE <br> ERRO na consulta API","tecnologia":"ERRO na consulta API","uf":"ERRO CADASTRO API PE","cidade":"Parnamirim","color":"orange","latitude":"-8.087292"},{"longitude":"-40.26472","name":"Trindade, ERRO CADASTRO API PE <br> ERRO na consulta API","tecnologia":"ERRO na consulta API","uf":"ERRO CADASTRO API PE","cidade":"Trindade","color":"orange","latitude":"-7.759"},{"longitude":"-44.141874","name":"Rio Claro, ERRO CADASTRO API RJ <br> ERRO na consulta API","tecnologia":"ERRO na consulta API","uf":"ERRO CADASTRO API RJ","cidade":"Rio Claro","color":"orange","latitude":"-22.720001"},{"longitude":"-35.691409","name":"Santa Maria, ERRO CADASTRO API RN <br> ERRO na consulta API","tecnologia":"ERRO na consulta API","uf":"ERRO CADASTRO API RN","cidade":"Santa Maria","color":"orange","latitude":"-5.838022"},{"longitude":"-35.427979","name":"Vera Cruz, ERRO CADASTRO API RN <br> ERRO na consulta API","tecnologia":"ERRO na consulta API","uf":"ERRO CADASTRO API RN","cidade":"Vera Cruz","color":"orange","latitude":"-6.043989"},{"longitude":"-52.923085","name":"Sarandi, ERRO CADASTRO API RS <br> ERRO na consulta API","tecnologia":"ERRO na consulta API","uf":"ERRO CADASTRO API RS","cidade":"Sarandi","color":"orange","latitude":"-27.942"},{"longitude":"-49.952503","name":"Praia Grande, ERRO CADASTRO API SC <br> ERRO na consulta API","tecnologia":"ERRO na consulta API","uf":"ERRO CADASTRO API SC","cidade":"Praia Grande","color":"orange","latitude":"-29.191846"},{"longitude":"-49.820735","name":"Vera Cruz, ERRO CADASTRO API SP <br> ERRO na consulta API","tecnologia":"ERRO na consulta API","uf":"ERRO CADASTRO API SP","cidade":"Vera Cruz","color":"orange","latitude":"-22.218308"},{"longitude":"-49.124926","name":"Alvorada, ERRO CADASTRO API TO <br> ERRO na consulta API","tecnologia":"ERRO na consulta API","uf":"ERRO CADASTRO API TO","cidade":"Alvorada","color":"orange","latitude":"-12.478465"},{"longitude":"-47.923399","name":"Cachoeirinha, ERRO CADASTRO API TO <br> ERRO na consulta API","tecnologia":"ERRO na consulta API","uf":"ERRO CADASTRO API TO","cidade":"Cachoeirinha","color":"orange","latitude":"-6.115596"},{"longitude":"-48.356482","name":"Lajeado, ERRO CADASTRO API TO <br> ERRO na consulta API","tecnologia":"ERRO na consulta API","uf":"ERRO CADASTRO API TO","cidade":"Lajeado","color":"orange","latitude":"-9.749956"}]
