[{"color":"red","name":"São Gonçalo, RJ <br> HFC","tecnologia":"HFC","longitude":"-43.063351","uf":"RJ","cidade":"São Gonçalo","latitude":"-22.82679"},{"color":"red","name":"Criciúma, SC <br> HFC","tecnologia":"HFC","longitude":"-49.372887","uf":"SC","cidade":"Criciúma","latitude":"-28.672267"},{"color":"red","name":"Mogi das Cruzes, SP <br> HFC","tecnologia":"HFC","longitude":"-46.18541","uf":"SP","cidade":"Mogi das Cruzes","latitude":"-23.52082"},{"color":"red","name":"Santa Branca, SP <br> HFC","tecnologia":"HFC","longitude":"-45.887521","uf":"SP","cidade":"Santa Branca","latitude":"-23.393311"},{"color":"red","name":"Palmas, TO <br> HFC","tecnologia":"HFC","longitude":"-48.355751","uf":"TO","cidade":"Palmas","latitude":"-10.239973"}]
