[{"uf":"AL","color":"green","name":"Arapiraca, AL <br> GPON","longitude":"-36.661471","latitude":"-9.754866","tecnologia":"GPON","cidade":"Arapiraca"},{"uf":"GO","color":"green","name":"Trindade, GO <br> GPON","longitude":"-49.492667","latitude":"-16.651708","tecnologia":"GPON","cidade":"Trindade"},{"uf":"MG","color":"green","name":"Araxá, MG <br> GPON","longitude":"-46.943804","latitude":"-19.590176","tecnologia":"GPON","cidade":"Araxá"},{"uf":"MG","color":"green","name":"Itajubá, MG <br> GPON","longitude":"-45.459818","latitude":"-22.422481","tecnologia":"GPON","cidade":"Itajubá"},{"uf":"RJ","color":"green","name":"Paraíba Do Sul, RJ <br> GPON","longitude":"-43.304004","latitude":"-22.158462","tecnologia":"GPON","cidade":"Paraíba Do Sul"},{"uf":"RO","color":"green","name":"Ji-Paraná, RO <br> GPON","longitude":"-61.932152","latitude":"-10.877741","tecnologia":"GPON","cidade":"Ji-Paraná"},{"uf":"RS","color":"green","name":"Camaquã, RS <br> GPON","longitude":"-51.80431","latitude":"-30.848897","tecnologia":"GPON","cidade":"Camaquã"},{"uf":"RS","color":"green","name":"Dois Irmãos, RS <br> GPON","longitude":"-51.089776","latitude":"-29.58356","tecnologia":"GPON","cidade":"Dois Irmãos"},{"uf":"RS","color":"green","name":"Marau, RS <br> GPON","longitude":"-52.198625","latitude":"-28.449754","tecnologia":"GPON","cidade":"Marau"},{"uf":"RS","color":"green","name":"Vacaria, RS <br> GPON","longitude":"-50.941791","latitude":"-28.507868","tecnologia":"GPON","cidade":"Vacaria"},{"uf":"SC","color":"green","name":"Içara, SC <br> GPON","longitude":"-49.308654","latitude":"-28.713206","tecnologia":"GPON","cidade":"Içara"},{"uf":"SP","color":"green","name":"Agudos, SP <br> GPON","longitude":"-48.98632","latitude":"-22.469433","tecnologia":"GPON","cidade":"Agudos"},{"uf":"SP","color":"green","name":"Casa Branca, SP <br> GPON","longitude":"-47.085245","latitude":"-21.77081","tecnologia":"GPON","cidade":"Casa Branca"},{"uf":"SP","color":"green","name":"Ibaté, SP <br> GPON","longitude":"-47.988211","latitude":"-21.958358","tecnologia":"GPON","cidade":"Ibaté"},{"uf":"SP","color":"green","name":"Jaguariúna, SP <br> GPON","longitude":"-46.985062","latitude":"-22.70374","tecnologia":"GPON","cidade":"Jaguariúna"},{"uf":"SP","color":"green","name":"Piedade, SP <br> GPON","longitude":"-47.425572","latitude":"-23.713941","tecnologia":"GPON","cidade":"Piedade"},{"uf":"SP","color":"green","name":"Santa Cruz das Palmeiras, SP <br> GPON","longitude":"-47.248023","latitude":"-21.823475","tecnologia":"GPON","cidade":"Santa Cruz das Palmeiras"},{"uf":"SP","color":"green","name":"Tambaú, SP <br> GPON","longitude":"-47.270344","latitude":"-21.70292","tecnologia":"GPON","cidade":"Tambaú"},{"uf":"TO","color":"green","name":"Araguaína, TO <br> GPON","longitude":"-48.204402","latitude":"-7.192375","tecnologia":"GPON","cidade":"Araguaína"},{"uf":"TO","color":"green","name":"Gurupi, TO <br> GPON","longitude":"-49.068046","latitude":"-11.72794","tecnologia":"GPON","cidade":"Gurupi"}]
