[{"uf":"RJ","color":"red","name":"São Gonçalo, RJ <br> HFC","longitude":"-43.063351","latitude":"-22.82679","tecnologia":"HFC","cidade":"São Gonçalo"},{"uf":"SC","color":"red","name":"Criciúma, SC <br> HFC","longitude":"-49.372887","latitude":"-28.672267","tecnologia":"HFC","cidade":"Criciúma"},{"uf":"SP","color":"red","name":"Mogi das Cruzes, SP <br> HFC","longitude":"-46.18541","latitude":"-23.52082","tecnologia":"HFC","cidade":"Mogi das Cruzes"},{"uf":"SP","color":"red","name":"Santa Branca, SP <br> HFC","longitude":"-45.887521","latitude":"-23.393311","tecnologia":"HFC","cidade":"Santa Branca"},{"uf":"TO","color":"red","name":"Palmas, TO <br> HFC","longitude":"-48.355751","latitude":"-10.239973","tecnologia":"HFC","cidade":"Palmas"}]
