[{"cidade":"Mogi das Cruzes","tecnologia":"Sobreposição HFC e GPON","color":"yellow","longitude":"-46.18541","latitude":"-23.52082","uf":"SP","name":"Mogi das Cruzes, SP <br> Sobreposição HFC e GPON"},{"cidade":"Palmas","tecnologia":"Sobreposição HFC e GPON","color":"yellow","longitude":"-48.355751","latitude":"-10.239973","uf":"TO","name":"Palmas, TO <br> Sobreposição HFC e GPON"},{"cidade":"Rio Branco","tecnologia":"Sobreposição HFC e GPON","color":"yellow","longitude":"-67.824348","latitude":"-9.97499","uf":"AC","name":"Rio Branco, AC <br> Sobreposição HFC e GPON"},{"cidade":"Manaus","tecnologia":"Sobreposição HFC e GPON","color":"yellow","longitude":"-60.02123","latitude":"-3.118662","uf":"AM","name":"Manaus, AM <br> Sobreposição HFC e GPON"},{"cidade":"Lauro de Freitas","tecnologia":"Sobreposição HFC e GPON","color":"yellow","longitude":"-38.321008","latitude":"-12.8978","uf":"BA","name":"Lauro de Freitas, BA <br> Sobreposição HFC e GPON"},{"cidade":"Salvador","tecnologia":"Sobreposição HFC e GPON","color":"yellow","longitude":"-38.501068","latitude":"-12.97178","uf":"BA","name":"Salvador, BA <br> Sobreposição HFC e GPON"},{"cidade":"Fortaleza","tecnologia":"Sobreposição HFC e GPON","color":"yellow","longitude":"-38.542298","latitude":"-3.716638","uf":"CE","name":"Fortaleza, CE <br> Sobreposição HFC e GPON"},{"cidade":"Cariacica","tecnologia":"Sobreposição HFC e GPON","color":"yellow","longitude":"-40.416549","latitude":"-20.263202","uf":"ES","name":"Cariacica, ES <br> Sobreposição HFC e GPON"},{"cidade":"Serra","tecnologia":"Sobreposição HFC e GPON","color":"yellow","longitude":"-40.307408","latitude":"-20.121032","uf":"ES","name":"Serra, ES <br> Sobreposição HFC e GPON"},{"cidade":"Vila Velha","tecnologia":"Sobreposição HFC e GPON","color":"yellow","longitude":"-40.287458","latitude":"-20.341705","uf":"ES","name":"Vila Velha, ES <br> Sobreposição HFC e GPON"},{"cidade":"Belo Horizonte","tecnologia":"Sobreposição HFC e GPON","color":"yellow","longitude":"-43.926572","latitude":"-19.910183","uf":"MG","name":"Belo Horizonte, MG <br> Sobreposição HFC e GPON"},{"cidade":"Contagem","tecnologia":"Sobreposição HFC e GPON","color":"yellow","longitude":"-44.05392","latitude":"-19.932079","uf":"MG","name":"Contagem, MG <br> Sobreposição HFC e GPON"},{"cidade":"Campo Grande","tecnologia":"Sobreposição HFC e GPON","color":"yellow","longitude":"-54.629463","latitude":"-20.448589","uf":"MS","name":"Campo Grande, MS <br> Sobreposição HFC e GPON"},{"cidade":"Ananindeua","tecnologia":"Sobreposição HFC e GPON","color":"yellow","longitude":"-48.374298","latitude":"-1.363914","uf":"PA","name":"Ananindeua, PA <br> Sobreposição HFC e GPON"},{"cidade":"Olinda","tecnologia":"Sobreposição HFC e GPON","color":"yellow","longitude":"-34.854504","latitude":"-8.010166","uf":"PE","name":"Olinda, PE <br> Sobreposição HFC e GPON"},{"cidade":"Paulista","tecnologia":"Sobreposição HFC e GPON","color":"yellow","longitude":"-34.868407","latitude":"-7.934007","uf":"PE","name":"Paulista, PE <br> Sobreposição HFC e GPON"},{"cidade":"Recife","tecnologia":"Sobreposição HFC e GPON","color":"yellow","longitude":"-34.877065","latitude":"-8.046658","uf":"PE","name":"Recife, PE <br> Sobreposição HFC e GPON"},{"cidade":"Teresina","tecnologia":"Sobreposição HFC e GPON","color":"yellow","longitude":"-42.803364","latitude":"-5.091944","uf":"PI","name":"Teresina, PI <br> Sobreposição HFC e GPON"},{"cidade":"Campo Largo","tecnologia":"Sobreposição HFC e GPON","color":"yellow","longitude":"-49.529026","latitude":"-25.452535","uf":"PR","name":"Campo Largo, PR <br> Sobreposição HFC e GPON"},{"cidade":"Curitiba","tecnologia":"Sobreposição HFC e GPON","color":"yellow","longitude":"-49.264622","latitude":"-25.419547","uf":"PR","name":"Curitiba, PR <br> Sobreposição HFC e GPON"},{"cidade":"Londrina","tecnologia":"Sobreposição HFC e GPON","color":"yellow","longitude":"-51.1691","latitude":"-23.303975","uf":"PR","name":"Londrina, PR <br> Sobreposição HFC e GPON"},{"cidade":"Rio de Janeiro","tecnologia":"Sobreposição HFC e GPON","color":"yellow","longitude":"-43.200295","latitude":"-22.912897","uf":"RJ","name":"Rio de Janeiro, RJ <br> Sobreposição HFC e GPON"},{"cidade":"Natal","tecnologia":"Sobreposição HFC e GPON","color":"yellow","longitude":"-35.198604","latitude":"-5.793567","uf":"RN","name":"Natal, RN <br> Sobreposição HFC e GPON"},{"cidade":"Parnamirim","tecnologia":"Sobreposição HFC e GPON","color":"yellow","longitude":"-35.271","latitude":"-5.911156","uf":"RN","name":"Parnamirim, RN <br> Sobreposição HFC e GPON"},{"cidade":"Porto Velho","tecnologia":"Sobreposição HFC e GPON","color":"yellow","longitude":"-63.899902","latitude":"-8.760772","uf":"RO","name":"Porto Velho, RO <br> Sobreposição HFC e GPON"},{"cidade":"Cachoeirinha","tecnologia":"Sobreposição HFC e GPON","color":"yellow","longitude":"-51.101606","latitude":"-29.947222","uf":"RS","name":"Cachoeirinha, RS <br> Sobreposição HFC e GPON"},{"cidade":"Canoas","tecnologia":"Sobreposição HFC e GPON","color":"yellow","longitude":"-51.185681","latitude":"-29.912758","uf":"RS","name":"Canoas, RS <br> Sobreposição HFC e GPON"},{"cidade":"Caxias do Sul","tecnologia":"Sobreposição HFC e GPON","color":"yellow","longitude":"-51.179161","latitude":"-29.162905","uf":"RS","name":"Caxias do Sul, RS <br> Sobreposição HFC e GPON"},{"cidade":"Farroupilha","tecnologia":"Sobreposição HFC e GPON","color":"yellow","longitude":"-51.341853","latitude":"-29.222689","uf":"RS","name":"Farroupilha, RS <br> Sobreposição HFC e GPON"},{"cidade":"Novo Hamburgo","tecnologia":"Sobreposição HFC e GPON","color":"yellow","longitude":"-51.132828","latitude":"-29.687548","uf":"RS","name":"Novo Hamburgo, RS <br> Sobreposição HFC e GPON"},{"cidade":"Porto Alegre","tecnologia":"Sobreposição HFC e GPON","color":"yellow","longitude":"-51.206533","latitude":"-30.031771","uf":"RS","name":"Porto Alegre, RS <br> Sobreposição HFC e GPON"},{"cidade":"Rio Grande","tecnologia":"Sobreposição HFC e GPON","color":"yellow","longitude":"-52.10705","latitude":"-32.034875","uf":"RS","name":"Rio Grande, RS <br> Sobreposição HFC e GPON"},{"cidade":"Joinville","tecnologia":"Sobreposição HFC e GPON","color":"yellow","longitude":"-48.848675","latitude":"-26.304497","uf":"SC","name":"Joinville, SC <br> Sobreposição HFC e GPON"},{"cidade":"Americana","tecnologia":"Sobreposição HFC e GPON","color":"yellow","longitude":"-47.333119","latitude":"-22.73736","uf":"SP","name":"Americana, SP <br> Sobreposição HFC e GPON"},{"cidade":"Araraquara","tecnologia":"Sobreposição HFC e GPON","color":"yellow","longitude":"-48.178014","latitude":"-21.784511","uf":"SP","name":"Araraquara, SP <br> Sobreposição HFC e GPON"},{"cidade":"Araras","tecnologia":"Sobreposição HFC e GPON","color":"yellow","longitude":"-47.384235","latitude":"-22.357238","uf":"SP","name":"Araras, SP <br> Sobreposição HFC e GPON"},{"cidade":"Atibaia","tecnologia":"Sobreposição HFC e GPON","color":"yellow","longitude":"-46.556262","latitude":"-23.117059","uf":"SP","name":"Atibaia, SP <br> Sobreposição HFC e GPON"},{"cidade":"Campinas","tecnologia":"Sobreposição HFC e GPON","color":"yellow","longitude":"-47.06595","latitude":"-22.905346","uf":"SP","name":"Campinas, SP <br> Sobreposição HFC e GPON"},{"cidade":"Diadema","tecnologia":"Sobreposição HFC e GPON","color":"yellow","longitude":"-46.62052","latitude":"-23.681347","uf":"SP","name":"Diadema, SP <br> Sobreposição HFC e GPON"},{"cidade":"Elias Fausto","tecnologia":"Sobreposição HFC e GPON","color":"yellow","longitude":"-47.368153","latitude":"-23.042822","uf":"SP","name":"Elias Fausto, SP <br> Sobreposição HFC e GPON"},{"cidade":"Franca","tecnologia":"Sobreposição HFC e GPON","color":"yellow","longitude":"-47.403861","latitude":"-20.53523","uf":"SP","name":"Franca, SP <br> Sobreposição HFC e GPON"},{"cidade":"Guarulhos","tecnologia":"Sobreposição HFC e GPON","color":"yellow","longitude":"-46.533347","latitude":"-23.453758","uf":"SP","name":"Guarulhos, SP <br> Sobreposição HFC e GPON"},{"cidade":"Indaiatuba","tecnologia":"Sobreposição HFC e GPON","color":"yellow","longitude":"-47.210093","latitude":"-23.081591","uf":"SP","name":"Indaiatuba, SP <br> Sobreposição HFC e GPON"},{"cidade":"Itu","tecnologia":"Sobreposição HFC e GPON","color":"yellow","longitude":"-47.292688","latitude":"-23.254397","uf":"SP","name":"Itu, SP <br> Sobreposição HFC e GPON"},{"cidade":"Osasco","tecnologia":"Sobreposição HFC e GPON","color":"yellow","longitude":"-46.791555","latitude":"-23.53239","uf":"SP","name":"Osasco, SP <br> Sobreposição HFC e GPON"},{"cidade":"Piracicaba","tecnologia":"Sobreposição HFC e GPON","color":"yellow","longitude":"-47.647612","latitude":"-22.733801","uf":"SP","name":"Piracicaba, SP <br> Sobreposição HFC e GPON"},{"cidade":"Praia Grande","tecnologia":"Sobreposição HFC e GPON","color":"yellow","longitude":"-46.412057","latitude":"-24.008378","uf":"SP","name":"Praia Grande, SP <br> Sobreposição HFC e GPON"},{"cidade":"Rio Claro","tecnologia":"Sobreposição HFC e GPON","color":"yellow","longitude":"-47.554632","latitude":"-22.398378","uf":"SP","name":"Rio Claro, SP <br> Sobreposição HFC e GPON"},{"cidade":"Santos","tecnologia":"Sobreposição HFC e GPON","color":"yellow","longitude":"-46.335042","latitude":"-23.953543","uf":"SP","name":"Santos, SP <br> Sobreposição HFC e GPON"},{"cidade":"Sorocaba","tecnologia":"Sobreposição HFC e GPON","color":"yellow","longitude":"-47.445073","latitude":"-23.496886","uf":"SP","name":"Sorocaba, SP <br> Sobreposição HFC e GPON"},{"cidade":"Valinhos","tecnologia":"Sobreposição HFC e GPON","color":"yellow","longitude":"-46.997367","latitude":"-22.969805","uf":"SP","name":"Valinhos, SP <br> Sobreposição HFC e GPON"}]
